{
"type": "FeatureCollection",
"name": "germany_waterlevels_with_forecast",
"crs": { "type": "name", "properties": { "name": "urn:ogc:def:crs:OGC:1.3:CRS84" } },
"features": [
{ "type": "Feature", "properties": { "station": "CELLE", "river_km": 1.74, "agency": "VERDEN", "station_id": "48300105", "river_name": "ALLER", "avg_discharge": 378.82291666666669, "flood_risk_score": 3.0, "flood_risk_category": "Medium", "forecast_steps": 3 }, "geometry": { "type": "Point", "coordinates": [ 10.062164093638698, 52.622705532132088 ] } },
{ "type": "Feature", "properties": { "station": "MARKLENDORF", "river_km": 38.47, "agency": "VERDEN", "station_id": "48700103", "river_name": "ALLER", "avg_discharge": 380.89322916666669, "flood_risk_score": 3.0, "flood_risk_category": "Medium", "forecast_steps": 3 }, "geometry": { "type": "Point", "coordinates": [ 9.703455757318091, 52.682757272702148 ] } },
{ "type": "Feature", "properties": { "station": "AHLDEN", "river_km": 58.71, "agency": "VERDEN", "station_id": "48900102", "river_name": "ALLER", "avg_discharge": 380.89322916666669, "flood_risk_score": 3.0, "flood_risk_category": "Medium", "forecast_steps": 3 }, "geometry": { "type": "Point", "coordinates": [ 9.570880730005371, 52.762431274855388 ] } },
{ "type": "Feature", "properties": { "station": "RETHEM", "river_km": 82.32, "agency": "VERDEN", "station_id": "48900204", "river_name": "ALLER", "avg_discharge": 380.89322916666669, "flood_risk_score": 3.0, "flood_risk_category": "Medium", "forecast_steps": 3 }, "geometry": { "type": "Point", "coordinates": [ 9.382840810129355, 52.789097592149574 ] } },
{ "type": "Feature", "properties": { "station": "EITZE", "river_km": 107.75, "agency": "VERDEN", "station_id": "48900237", "river_name": "ALLER", "avg_discharge": 380.89322916666669, "flood_risk_score": 3.0, "flood_risk_category": "Medium", "forecast_steps": 3 }, "geometry": { "type": "Point", "coordinates": [ 9.276769435375872, 52.904065447434171 ] } },
{ "type": "Feature", "properties": { "station": "BERLIN-PLÖTZENSEE OP", "river_km": 7.4, "agency": "STANDORT BERLIN", "station_id": "586640", "river_name": "BSK", "avg_discharge": 19.135416666666668, "flood_risk_score": 6.0, "flood_risk_category": "High", "forecast_steps": 3 }, "geometry": { "type": "Point", "coordinates": [ 13.32314190907983, 52.543699621319746 ] } },
{ "type": "Feature", "properties": { "station": "BERLIN-PLÖTZENSEE UP", "river_km": 7.5, "agency": "STANDORT BERLIN", "station_id": "586650", "river_name": "BSK", "avg_discharge": 19.135416666666668, "flood_risk_score": 6.0, "flood_risk_category": "High", "forecast_steps": 3 }, "geometry": { "type": "Point", "coordinates": [ 13.323858970566247, 52.543035544698149 ] } },
{ "type": "Feature", "properties": { "station": "KONSTANZ", "river_km": 0.0, "agency": "REGIERUNGSPRÄSIDIUM FREIBURG", "station_id": "906", "river_name": "BODENSEE", "avg_discharge": 0.1328125, "flood_risk_score": 0.0, "flood_risk_category": "Very Low", "forecast_steps": 3 }, "geometry": { "type": "Point", "coordinates": [ 9.18103908795411, 47.660750139099356 ] } },
{ "type": "Feature", "properties": { "station": "ABBENFLETH SPERRWERK", "river_km": 2.95, "agency": "STANDORT HAMBURG", "station_id": "126013", "river_name": "BSE", "avg_discharge": 380.89322916666669, "flood_risk_score": 3.0, "flood_risk_category": "Medium", "forecast_steps": 3 }, "geometry": { "type": "Point", "coordinates": [ 9.494306874416917, 53.668963035142113 ] } },
{ "type": "Feature", "properties": { "station": "BERLIN-SCHMÖCKWITZ", "river_km": 0.3, "agency": "STANDORT BERLIN", "station_id": "586810", "river_name": "DAW", "avg_discharge": 0.020833333333333332, "flood_risk_score": 0.0, "flood_risk_category": "Very Low", "forecast_steps": 3 }, "geometry": { "type": "Point", "coordinates": [ 13.653581054978609, 52.37439814035875 ] } },
{ "type": "Feature", "properties": { "station": "NEUE MÜHLE SCHLEUSE UP", "river_km": 9.4, "agency": "STANDORT BERLIN", "station_id": "586280", "river_name": "DAW", "avg_discharge": 0.94791666666666663, "flood_risk_score": 0.0, "flood_risk_category": "Very Low", "forecast_steps": 3 }, "geometry": { "type": "Point", "coordinates": [ 13.649641346289082, 52.297474676265232 ] } },
{ "type": "Feature", "properties": { "station": "NEUE MÜHLE SCHLEUSE OP", "river_km": 9.56, "agency": "STANDORT BERLIN", "station_id": "586270", "river_name": "DAW", "avg_discharge": 0.0234375, "flood_risk_score": 0.0, "flood_risk_category": "Very Low", "forecast_steps": 3 }, "geometry": { "type": "Point", "coordinates": [ 13.6517575954466, 52.296815806335097 ] } },
{ "type": "Feature", "properties": { "station": "WALTROP", "river_km": 2.144, "agency": "RHEINE", "station_id": "27800090", "river_name": "DHK", "avg_discharge": 0.1328125, "flood_risk_score": 0.0, "flood_risk_category": "Very Low", "forecast_steps": 3 }, "geometry": { "type": "Point", "coordinates": [ 7.380201417969079, 51.639741305288204 ] } },
{ "type": "Feature", "properties": { "station": "HAMM UW", "river_km": 36.59, "agency": "RHEINE", "station_id": "27800080", "river_name": "DHK", "avg_discharge": 0.1328125, "flood_risk_score": 0.0, "flood_risk_category": "Very Low", "forecast_steps": 3 }, "geometry": { "type": "Point", "coordinates": [ 7.815788635565504, 51.684812440547496 ] } },
{ "type": "Feature", "properties": { "station": "HAMM OW", "river_km": 38.72, "agency": "RHEINE", "station_id": "27800060", "river_name": "DHK", "avg_discharge": 0.1328125, "flood_risk_score": 0.0, "flood_risk_category": "Very Low", "forecast_steps": 3 }, "geometry": { "type": "Point", "coordinates": [ 7.842759417458161, 51.693781744480575 ] } },
{ "type": "Feature", "properties": { "station": "WERRIES OW", "river_km": 40.611, "agency": "RHEINE", "station_id": "27800050", "river_name": "DHK", "avg_discharge": 0.1328125, "flood_risk_score": 0.0, "flood_risk_category": "Very Low", "forecast_steps": 3 }, "geometry": { "type": "Point", "coordinates": [ 7.870045686711513, 51.695152785910125 ] } },
{ "type": "Feature", "properties": { "station": "HELMINGHAUSEN", "river_km": 90.0, "agency": "HANN-MÜNDEN", "station_id": "44100206", "river_name": "DIEMEL", "avg_discharge": 0.1328125, "flood_risk_score": 0.0, "flood_risk_category": "Very Low", "forecast_steps": 3 }, "geometry": { "type": "Point", "coordinates": [ 8.730780201102268, 51.381475229426265 ] } },
{ "type": "Feature", "properties": { "station": "DIEMELTALSPERRE", "river_km": 90.6, "agency": "HANN-MÜNDEN", "station_id": "44100104", "river_name": "DIEMEL", "avg_discharge": 0.1328125, "flood_risk_score": 0.0, "flood_risk_category": "Very Low", "forecast_steps": 3 }, "geometry": { "type": "Point", "coordinates": [ 8.728647958229971, 51.377695222558124 ] } },
{ "type": "Feature", "properties": { "station": "WILHELMSBRÜCKE", "river_km": 97.4, "agency": "HANN-MÜNDEN", "station_id": "44100024", "river_name": "DIEMEL", "avg_discharge": 0.1328125, "flood_risk_score": 0.0, "flood_risk_category": "Very Low", "forecast_steps": 3 }, "geometry": { "type": "Point", "coordinates": [ 8.723953002325766, 51.346314898367361 ] } },
{ "type": "Feature", "properties": { "station": "ERLAU", "river_km": 2214.5, "agency": "STANDORT REGENSBURG", "station_id": "10096001", "river_name": "DONAU", "avg_discharge": 0.0026041666666666665, "flood_risk_score": 0.0, "flood_risk_category": "Very Low", "forecast_steps": 3 }, "geometry": { "type": "Point", "coordinates": [ 13.586812740786126, 48.567381563713134 ] } },
{ "type": "Feature", "properties": { "station": "ACHLEITEN", "river_km": 2223.1, "agency": "VIA DONAU", "station_id": "10094006", "river_name": "DONAU", "avg_discharge": 0.0, "flood_risk_score": null, "flood_risk_category": "Unknown", "forecast_steps": 0 }, "geometry": { "type": "Point", "coordinates": [ 13.503184735677362, 48.582046811308707 ] } },
{ "type": "Feature", "properties": { "station": "PASSAU ILZSTADT", "river_km": 2225.2, "agency": "STANDORT REGENSBURG", "station_id": "10092000", "river_name": "DONAU", "avg_discharge": 0.0234375, "flood_risk_score": 0.0, "flood_risk_category": "Very Low", "forecast_steps": 3 }, "geometry": { "type": "Point", "coordinates": [ 13.478017248883907, 48.575198327193995 ] } },
{ "type": "Feature", "properties": { "station": "PASSAU LUITPOLDBRÜCKE DFH", "river_km": 2225.75, "agency": "STANDORT REGENSBURG", "station_id": "10091013", "river_name": "DONAU", "avg_discharge": 0.0234375, "flood_risk_score": 0.0, "flood_risk_category": "Very Low", "forecast_steps": 3 }, "geometry": { "type": "Point", "coordinates": [ 13.472832549818257, 48.5758353059177 ] } },
{ "type": "Feature", "properties": { "station": "PASSAU DONAU", "river_km": 2226.7, "agency": "STANDORT REGENSBURG", "station_id": "10091008", "river_name": "DONAU", "avg_discharge": 0.0234375, "flood_risk_score": 0.0, "flood_risk_category": "Very Low", "forecast_steps": 3 }, "geometry": { "type": "Point", "coordinates": [ 13.459076097304042, 48.576133034895186 ] } },
{ "type": "Feature", "properties": { "station": "KACHLET SCHLEUSE UP", "river_km": 2230.3, "agency": "STANDORT REGENSBURG", "station_id": "10090708", "river_name": "DONAU", "avg_discharge": 0.0390625, "flood_risk_score": 0.0, "flood_risk_category": "Very Low", "forecast_steps": 3 }, "geometry": { "type": "Point", "coordinates": [ 13.412690329547244, 48.578228242326162 ] } },
{ "type": "Feature", "properties": { "station": "PASSAU STEINBACHBRÜCKE DFH", "river_km": 2230.31, "agency": "STANDORT REGENSBURG", "station_id": "10090710", "river_name": "DONAU", "avg_discharge": 0.0234375, "flood_risk_score": 0.0, "flood_risk_category": "Very Low", "forecast_steps": 3 }, "geometry": { "type": "Point", "coordinates": [ 13.475461520306283, 48.575669960010167 ] } },
{ "type": "Feature", "properties": { "station": "VILSHOFEN", "river_km": 2249.5, "agency": "STANDORT REGENSBURG", "station_id": "10089006", "river_name": "DONAU", "avg_discharge": 0.0234375, "flood_risk_score": 0.0, "flood_risk_category": "Very Low", "forecast_steps": 3 }, "geometry": { "type": "Point", "coordinates": [ 13.182429265048121, 48.637297237533453 ] } },
{ "type": "Feature", "properties": { "station": "HOFKIRCHEN", "river_km": 2256.9, "agency": "STANDORT REGENSBURG", "station_id": "10088003", "river_name": "DONAU", "avg_discharge": 0.41666666666666669, "flood_risk_score": 0.0, "flood_risk_category": "Very Low", "forecast_steps": 3 }, "geometry": { "type": "Point", "coordinates": [ 13.115154340070292, 48.676675029462743 ] } },
{ "type": "Feature", "properties": { "station": "DEGGENDORF", "river_km": 2284.4, "agency": "STANDORT REGENSBURG", "station_id": "10081004", "river_name": "DONAU", "avg_discharge": 22.481770833333332, "flood_risk_score": 0.0, "flood_risk_category": "Very Low", "forecast_steps": 3 }, "geometry": { "type": "Point", "coordinates": [ 12.962349954256105, 48.824943730974475 ] } },
{ "type": "Feature", "properties": { "station": "PFELLING", "river_km": 2305.5, "agency": "STANDORT REGENSBURG", "station_id": "10078000", "river_name": "DONAU", "avg_discharge": 0.25520833333333331, "flood_risk_score": 0.0, "flood_risk_category": "Very Low", "forecast_steps": 3 }, "geometry": { "type": "Point", "coordinates": [ 12.74721651873093, 48.879766139502017 ] } },
{ "type": "Feature", "properties": { "station": "PFATTER", "river_km": 2350.7, "agency": "STANDORT REGENSBURG", "station_id": "10068006", "river_name": "DONAU", "avg_discharge": 0.4296875, "flood_risk_score": 0.0, "flood_risk_category": "Very Low", "forecast_steps": 3 }, "geometry": { "type": "Point", "coordinates": [ 12.383772087742049, 48.980436203842146 ] } },
{ "type": "Feature", "properties": { "station": "SCHWABELWEIS", "river_km": 2376.5, "agency": "STANDORT REGENSBURG", "station_id": "10062000", "river_name": "DONAU", "avg_discharge": 0.16666666666666666, "flood_risk_score": 0.0, "flood_risk_category": "Very Low", "forecast_steps": 3 }, "geometry": { "type": "Point", "coordinates": [ 12.138693301483213, 49.023582660908495 ] } },
{ "type": "Feature", "properties": { "station": "REGENSBURG EISERNE BRÜCKE", "river_km": 2379.3, "agency": "STANDORT REGENSBURG", "station_id": "10061007", "river_name": "DONAU", "avg_discharge": 0.16666666666666666, "flood_risk_score": 0.0, "flood_risk_category": "Very Low", "forecast_steps": 3 }, "geometry": { "type": "Point", "coordinates": [ 12.101826608059241, 49.021358796498625 ] } },
{ "type": "Feature", "properties": { "station": "OBERNDORF", "river_km": 2397.4, "agency": "STANDORT REGENSBURG", "station_id": "10056302", "river_name": "DONAU", "avg_discharge": 0.1328125, "flood_risk_score": 0.0, "flood_risk_category": "Very Low", "forecast_steps": 3 }, "geometry": { "type": "Point", "coordinates": [ 12.014893052887009, 48.946969079253137 ] } },
{ "type": "Feature", "properties": { "station": "KELHEIMWINZER", "river_km": 2409.7, "agency": "STANDORT REGENSBURG", "station_id": "10054500", "river_name": "DONAU", "avg_discharge": 0.1328125, "flood_risk_score": 0.0, "flood_risk_category": "Very Low", "forecast_steps": 3 }, "geometry": { "type": "Point", "coordinates": [ 11.932060187383781, 48.91185797534402 ] } },
{ "type": "Feature", "properties": { "station": "INGOLSTADT LUITPOLDSTRASSE", "river_km": 2458.3, "agency": "WASSERWIRTSCHAFTSAMT INGOLSTADT", "station_id": "10046105", "river_name": "DONAU", "avg_discharge": 0.1328125, "flood_risk_score": 0.0, "flood_risk_category": "Very Low", "forecast_steps": 3 }, "geometry": { "type": "Point", "coordinates": [ 11.42605413309612, 48.757414177076008 ] } },
{ "type": "Feature", "properties": { "station": "HENRICHENBURG OW", "river_km": 14.3, "agency": "DUISBURG-MEIDERICH", "station_id": "27700111", "river_name": "DEK", "avg_discharge": 0.1328125, "flood_risk_score": 0.0, "flood_risk_category": "Very Low", "forecast_steps": 3 }, "geometry": { "type": "Point", "coordinates": [ 7.339002440622213, 51.61604687127452 ] } },
{ "type": "Feature", "properties": { "station": "HENRICHENBURG UW", "river_km": 15.9, "agency": "DUISBURG-MEIDERICH", "station_id": "27700133", "river_name": "DEK", "avg_discharge": 0.1328125, "flood_risk_score": 0.0, "flood_risk_category": "Very Low", "forecast_steps": 3 }, "geometry": { "type": "Point", "coordinates": [ 7.329425364716587, 51.621117868639033 ] } },
{ "type": "Feature", "properties": { "station": "LÜDINGHAUSEN", "river_km": 39.32, "agency": "RHEINE", "station_id": "27800020", "river_name": "DEK", "avg_discharge": 0.1328125, "flood_risk_score": 0.0, "flood_risk_category": "Very Low", "forecast_steps": 3 }, "geometry": { "type": "Point", "coordinates": [ 7.401947345930441, 51.798112717043963 ] } },
{ "type": "Feature", "properties": { "station": "MÜNSTER OW", "river_km": 70.315, "agency": "RHEINE", "station_id": "27800040", "river_name": "DEK", "avg_discharge": 0.1328125, "flood_risk_score": 0.0, "flood_risk_category": "Very Low", "forecast_steps": 3 }, "geometry": { "type": "Point", "coordinates": [ 7.664374042081728, 51.968941959729285 ] } },
{ "type": "Feature", "properties": { "station": "MÜNSTER UW", "river_km": 72.49, "agency": "RHEINE", "station_id": "27800030", "river_name": "DEK", "avg_discharge": 0.1328125, "flood_risk_score": 0.0, "flood_risk_category": "Very Low", "forecast_steps": 3 }, "geometry": { "type": "Point", "coordinates": [ 7.660129217739212, 51.987125070778745 ] } },
{ "type": "Feature", "properties": { "station": "BERGESHÖVEDE", "river_km": 108.26, "agency": "RHEINE", "station_id": "34000010", "river_name": "DEK", "avg_discharge": 0.1328125, "flood_risk_score": 0.0, "flood_risk_category": "Very Low", "forecast_steps": 3 }, "geometry": { "type": "Point", "coordinates": [ 7.604958266270348, 52.275852653274264 ] } },
{ "type": "Feature", "properties": { "station": "HASEHUBBRÜCKE", "river_km": 166.42, "agency": "STANDORT MEPPEN", "station_id": "3690010", "river_name": "DEK", "avg_discharge": 380.89322916666669, "flood_risk_score": 3.0, "flood_risk_category": "Medium", "forecast_steps": 3 }, "geometry": { "type": "Point", "coordinates": [ 7.292912281272762, 52.694190997842249 ] } },
{ "type": "Feature", "properties": { "station": "VERSEN TRENNSPITZE", "river_km": 171.309, "agency": "STANDORT MEPPEN", "station_id": "25463", "river_name": "DEK", "avg_discharge": 380.89322916666669, "flood_risk_score": 3.0, "flood_risk_category": "Medium", "forecast_steps": 3 }, "geometry": { "type": "Point", "coordinates": [ 7.260856418142803, 52.731186976180886 ] } },
{ "type": "Feature", "properties": { "station": "HERBRUM HAFENDAMM", "river_km": 213.07, "agency": "STANDORT MEPPEN", "station_id": "3770030", "river_name": "DEK", "avg_discharge": 380.89322916666669, "flood_risk_score": 3.0, "flood_risk_category": "Medium", "forecast_steps": 3 }, "geometry": { "type": "Point", "coordinates": [ 7.31713543382693, 53.041915351638828 ] } },
{ "type": "Feature", "properties": { "station": "RHEDE", "river_km": 217.86, "agency": "STANDORT MEPPEN", "station_id": "3770040", "river_name": "DEK", "avg_discharge": 380.89322916666669, "flood_risk_score": 3.0, "flood_risk_category": "Medium", "forecast_steps": 3 }, "geometry": { "type": "Point", "coordinates": [ 7.286979017850521, 53.072417921102975 ] } },
{ "type": "Feature", "properties": { "station": "GW-PWDRFP 02", "river_km": 11.94, "agency": "STANDORT BRUNSBÜTTEL", "station_id": "2130154610", "river_name": "DYHRMOOR", "avg_discharge": 380.89322916666669, "flood_risk_score": 3.0, "flood_risk_category": "Medium", "forecast_steps": 3 }, "geometry": { "type": "Point", "coordinates": [ 9.262888663124173, 53.957237030121988 ] } },
{ "type": "Feature", "properties": { "station": "GW-PWDRFP 01", "river_km": 12.03, "agency": "STANDORT BRUNSBÜTTEL", "station_id": "1130154610", "river_name": "DYHRMOOR", "avg_discharge": 380.89322916666669, "flood_risk_score": 3.0, "flood_risk_category": "Medium", "forecast_steps": 3 }, "geometry": { "type": "Point", "coordinates": [ 9.260387081801172, 53.959406208656965 ] } },
{ "type": "Feature", "properties": { "station": "GW-PWDRFP 08", "river_km": 12.45, "agency": "STANDORT BRUNSBÜTTEL", "station_id": "8130154610", "river_name": "DYHRMOOR", "avg_discharge": 380.89322916666669, "flood_risk_score": 3.0, "flood_risk_category": "Medium", "forecast_steps": 3 }, "geometry": { "type": "Point", "coordinates": [ 9.26502610119174, 53.962118678303263 ] } },
{ "type": "Feature", "properties": { "station": "GW-PWDRFP 03", "river_km": 12.49, "agency": "STANDORT BRUNSBÜTTEL", "station_id": "3130154610", "river_name": "DYHRMOOR", "avg_discharge": 380.89322916666669, "flood_risk_score": 3.0, "flood_risk_category": "Medium", "forecast_steps": 3 }, "geometry": { "type": "Point", "coordinates": [ 9.268645473763717, 53.960812912075177 ] } },
{ "type": "Feature", "properties": { "station": "GW-PWDRFP 09", "river_km": 12.73, "agency": "STANDORT BRUNSBÜTTEL", "station_id": "9130154610", "river_name": "DYHRMOOR", "avg_discharge": 380.89322916666669, "flood_risk_score": 3.0, "flood_risk_category": "Medium", "forecast_steps": 3 }, "geometry": { "type": "Point", "coordinates": [ 9.26751707104539, 53.964195552134612 ] } },
{ "type": "Feature", "properties": { "station": "GW-PWDRFP 04", "river_km": 13.0, "agency": "STANDORT BRUNSBÜTTEL", "station_id": "4130154610", "river_name": "DYHRMOOR", "avg_discharge": 380.89322916666669, "flood_risk_score": 3.0, "flood_risk_category": "Medium", "forecast_steps": 3 }, "geometry": { "type": "Point", "coordinates": [ 9.276800135485711, 53.962781891842099 ] } },
{ "type": "Feature", "properties": { "station": "GW-PWDRFP 06", "river_km": 13.31, "agency": "STANDORT BRUNSBÜTTEL", "station_id": "6130154610", "river_name": "DYHRMOOR", "avg_discharge": 380.89322916666669, "flood_risk_score": 3.0, "flood_risk_category": "Medium", "forecast_steps": 3 }, "geometry": { "type": "Point", "coordinates": [ 9.272183336975178, 53.968640865565796 ] } },
{ "type": "Feature", "properties": { "station": "GW-PWDRFP 05", "river_km": 13.4, "agency": "STANDORT BRUNSBÜTTEL", "station_id": "5130154610", "river_name": "DYHRMOOR", "avg_discharge": 380.89322916666669, "flood_risk_score": 3.0, "flood_risk_category": "Medium", "forecast_steps": 3 }, "geometry": { "type": "Point", "coordinates": [ 9.275973783528286, 53.967944083952361 ] } },
{ "type": "Feature", "properties": { "station": "GW-PWDRFP 07", "river_km": 13.86, "agency": "STANDORT BRUNSBÜTTEL", "station_id": "7130154610", "river_name": "DYHRMOOR", "avg_discharge": 380.89322916666669, "flood_risk_score": 3.0, "flood_risk_category": "Medium", "forecast_steps": 3 }, "geometry": { "type": "Point", "coordinates": [ 9.275959434151837, 53.973117876023721 ] } },
{ "type": "Feature", "properties": { "station": "AFFOLDERN", "river_km": 44.02, "agency": "HANN-MÜNDEN", "station_id": "42800502", "river_name": "EDER", "avg_discharge": 0.1328125, "flood_risk_score": 0.0, "flood_risk_category": "Very Low", "forecast_steps": 3 }, "geometry": { "type": "Point", "coordinates": [ 9.084726303618202, 51.16414086575071 ] } },
{ "type": "Feature", "properties": { "station": "EDERTALSPERRE", "river_km": 49.2, "agency": "HANN-MÜNDEN", "station_id": "42800310", "river_name": "EDER", "avg_discharge": 0.1328125, "flood_risk_score": 0.0, "flood_risk_category": "Very Low", "forecast_steps": 3 }, "geometry": { "type": "Point", "coordinates": [ 9.058927535521473, 51.184040054662518 ] } },
{ "type": "Feature", "properties": { "station": "SCHMITTLOTHEIM", "river_km": 74.5, "agency": "HANN-MÜNDEN", "station_id": "42800309", "river_name": "EDER", "avg_discharge": 0.1328125, "flood_risk_score": 0.0, "flood_risk_category": "Very Low", "forecast_steps": 3 }, "geometry": { "type": "Point", "coordinates": [ 8.897957630761978, 51.155725869076569 ] } },
{ "type": "Feature", "properties": { "station": "LEXFÄHRE OBERWASSER", "river_km": 26.09, "agency": "STANDORT TÖNNING", "station_id": "9520020", "river_name": "EIDER", "avg_discharge": 380.89322916666669, "flood_risk_score": 3.0, "flood_risk_category": "Medium", "forecast_steps": 3 }, "geometry": { "type": "Point", "coordinates": [ 9.436143069928908, 54.222472119008394 ] } },
{ "type": "Feature", "properties": { "station": "LEXFÄHRE UNTERWASSER", "river_km": 26.09, "agency": "STANDORT TÖNNING", "station_id": "9520030", "river_name": "EIDER", "avg_discharge": 380.89322916666669, "flood_risk_score": 3.0, "flood_risk_category": "Medium", "forecast_steps": 3 }, "geometry": { "type": "Point", "coordinates": [ 9.435675671907068, 54.223219490436755 ] } },
{ "type": "Feature", "properties": { "station": "NORDFELD OBERWASSER", "river_km": 78.19, "agency": "STANDORT TÖNNING", "station_id": "9520040", "river_name": "EIDER", "avg_discharge": 380.89322916666669, "flood_risk_score": 3.0, "flood_risk_category": "Medium", "forecast_steps": 3 }, "geometry": { "type": "Point", "coordinates": [ 9.139643467419781, 54.338733108427682 ] } },
{ "type": "Feature", "properties": { "station": "NORDFELD UNTERWASSER", "river_km": 78.312, "agency": "STANDORT TÖNNING", "station_id": "9520050", "river_name": "EIDER", "avg_discharge": 380.89322916666669, "flood_risk_score": 3.0, "flood_risk_category": "Medium", "forecast_steps": 3 }, "geometry": { "type": "Point", "coordinates": [ 9.138246832675822, 54.339462413959055 ] } },
{ "type": "Feature", "properties": { "station": "FRIEDRICHSTADT STRASSENBRÜCKE", "river_km": 83.14, "agency": "STANDORT TÖNNING", "station_id": "9520060", "river_name": "EIDER", "avg_discharge": 380.89322916666669, "flood_risk_score": 3.0, "flood_risk_category": "Medium", "forecast_steps": 3 }, "geometry": { "type": "Point", "coordinates": [ 9.094603006864789, 54.368468527358907 ] } },
{ "type": "Feature", "properties": { "station": "TÖNNING", "river_km": 99.8, "agency": "STANDORT TÖNNING", "station_id": "9520070", "river_name": "EIDER", "avg_discharge": 380.89322916666669, "flood_risk_score": 3.0, "flood_risk_category": "Medium", "forecast_steps": 3 }, "geometry": { "type": "Point", "coordinates": [ 8.950149034965452, 54.314682999845758 ] } },
{ "type": "Feature", "properties": { "station": "EIDER-SPERRWERK BP", "river_km": 110.1, "agency": "STANDORT TÖNNING", "station_id": "9520081", "river_name": "EIDER", "avg_discharge": 380.89322916666669, "flood_risk_score": 3.0, "flood_risk_category": "Medium", "forecast_steps": 3 }, "geometry": { "type": "Point", "coordinates": [ 8.849593787440885, 54.265865929366214 ] } },
{ "type": "Feature", "properties": { "station": "SCHÖNA", "river_km": 2.05, "agency": "STANDORT DRESDEN", "station_id": "501010", "river_name": "ELBE", "avg_discharge": 0.0, "flood_risk_score": null, "flood_risk_category": "Unknown", "forecast_steps": 0 }, "geometry": { "type": "Point", "coordinates": [ 14.235228651495222, 50.875762322938279 ] } },
{ "type": "Feature", "properties": { "station": "PIRNA", "river_km": 34.67, "agency": "STANDORT DRESDEN", "station_id": "501040", "river_name": "ELBE", "avg_discharge": 0.0, "flood_risk_score": null, "flood_risk_category": "Unknown", "forecast_steps": 0 }, "geometry": { "type": "Point", "coordinates": [ 13.929755188361451, 50.964584618407713 ] } },
{ "type": "Feature", "properties": { "station": "DRESDEN", "river_km": 55.63, "agency": "STANDORT DRESDEN", "station_id": "501060", "river_name": "ELBE", "avg_discharge": 0.0, "flood_risk_score": null, "flood_risk_category": "Unknown", "forecast_steps": 0 }, "geometry": { "type": "Point", "coordinates": [ 13.738831783620384, 51.054459765598125 ] } },
{ "type": "Feature", "properties": { "station": "MEISSEN", "river_km": 82.2, "agency": "STANDORT DRESDEN", "station_id": "501080", "river_name": "ELBE", "avg_discharge": 0.0234375, "flood_risk_score": 0.0, "flood_risk_category": "Very Low", "forecast_steps": 3 }, "geometry": { "type": "Point", "coordinates": [ 13.475467710324812, 51.164405575545452 ] } },
{ "type": "Feature", "properties": { "station": "RIESA", "river_km": 108.4, "agency": "STANDORT DRESDEN", "station_id": "501110", "river_name": "ELBE", "avg_discharge": 0.046875, "flood_risk_score": 0.0, "flood_risk_category": "Very Low", "forecast_steps": 3 }, "geometry": { "type": "Point", "coordinates": [ 13.29334052168511, 51.311481597001134 ] } },
{ "type": "Feature", "properties": { "station": "MÜHLBERG", "river_km": 128.02, "agency": "STANDORT DRESDEN", "station_id": "501160", "river_name": "ELBE", "avg_discharge": 0.0234375, "flood_risk_score": 0.0, "flood_risk_category": "Very Low", "forecast_steps": 3 }, "geometry": { "type": "Point", "coordinates": [ 13.191761890400072, 51.437349595668721 ] } },
{ "type": "Feature", "properties": { "station": "TORGAU", "river_km": 154.15, "agency": "STANDORT DRESDEN", "station_id": "501261", "river_name": "ELBE", "avg_discharge": 0.0234375, "flood_risk_score": 0.0, "flood_risk_category": "Very Low", "forecast_steps": 3 }, "geometry": { "type": "Point", "coordinates": [ 13.010130601854939, 51.553684542314429 ] } },
{ "type": "Feature", "properties": { "station": "PRETZSCH-MAUKEN", "river_km": 184.45, "agency": "STANDORT DRESDEN", "station_id": "501330", "river_name": "ELBE", "avg_discharge": 0.072916666666666671, "flood_risk_score": 0.0, "flood_risk_category": "Very Low", "forecast_steps": 3 }, "geometry": { "type": "Point", "coordinates": [ 12.82329701429728, 51.716992644963781 ] } },
{ "type": "Feature", "properties": { "station": "ELSTER", "river_km": 200.15, "agency": "STANDORT DRESDEN", "station_id": "501390", "river_name": "ELBE", "avg_discharge": 0.072916666666666671, "flood_risk_score": 0.0, "flood_risk_category": "Very Low", "forecast_steps": 3 }, "geometry": { "type": "Point", "coordinates": [ 12.827256703317088, 51.826850671260907 ] } },
{ "type": "Feature", "properties": { "station": "WITTENBERG", "river_km": 214.14, "agency": "STANDORT DRESDEN", "station_id": "501420", "river_name": "ELBE", "avg_discharge": 0.03125, "flood_risk_score": 0.0, "flood_risk_category": "Very Low", "forecast_steps": 3 }, "geometry": { "type": "Point", "coordinates": [ 12.646310954043884, 51.856529144913402 ] } },
{ "type": "Feature", "properties": { "station": "COSWIG", "river_km": 236.31, "agency": "STANDORT DRESDEN", "station_id": "501470", "river_name": "ELBE", "avg_discharge": 0.6875, "flood_risk_score": 0.0, "flood_risk_category": "Very Low", "forecast_steps": 3 }, "geometry": { "type": "Point", "coordinates": [ 12.454011602418161, 51.87694050837316 ] } },
{ "type": "Feature", "properties": { "station": "VOCKERODE", "river_km": 245.62, "agency": "STANDORT DRESDEN", "station_id": "501480", "river_name": "ELBE", "avg_discharge": 0.4296875, "flood_risk_score": 0.0, "flood_risk_category": "Very Low", "forecast_steps": 3 }, "geometry": { "type": "Point", "coordinates": [ 12.355386908862236, 51.851332646269746 ] } },
{ "type": "Feature", "properties": { "station": "ROSSLAU", "river_km": 257.84, "agency": "STANDORT DRESDEN", "station_id": "501490", "river_name": "ELBE", "avg_discharge": 0.70572916666666663, "flood_risk_score": 0.0, "flood_risk_category": "Very Low", "forecast_steps": 3 }, "geometry": { "type": "Point", "coordinates": [ 12.236540981164822, 51.881407375063922 ] } },
{ "type": "Feature", "properties": { "station": "DESSAU", "river_km": 261.16, "agency": "STANDORT DRESDEN", "station_id": "502000", "river_name": "ELBE", "avg_discharge": 0.70572916666666663, "flood_risk_score": 0.0, "flood_risk_category": "Very Low", "forecast_steps": 3 }, "geometry": { "type": "Point", "coordinates": [ 12.223276831448221, 51.856888350666324 ] } },
{ "type": "Feature", "properties": { "station": "AKEN", "river_km": 274.8, "agency": "STANDORT DRESDEN", "station_id": "502010", "river_name": "ELBE", "avg_discharge": 0.1171875, "flood_risk_score": 0.0, "flood_risk_category": "Very Low", "forecast_steps": 3 }, "geometry": { "type": "Point", "coordinates": [ 12.058859064366539, 51.857867459889704 ] } },
{ "type": "Feature", "properties": { "station": "BARBY", "river_km": 294.82, "agency": "STANDORT MAGDEBURG", "station_id": "502070", "river_name": "ELBE", "avg_discharge": 0.1328125, "flood_risk_score": 0.0, "flood_risk_category": "Very Low", "forecast_steps": 3 }, "geometry": { "type": "Point", "coordinates": [ 11.882246426452303, 51.984833781910986 ] } },
{ "type": "Feature", "properties": { "station": "SCHÖNEBECK", "river_km": 311.76, "agency": "STANDORT MAGDEBURG", "station_id": "502130", "river_name": "ELBE", "avg_discharge": 0.1328125, "flood_risk_score": 0.0, "flood_risk_category": "Very Low", "forecast_steps": 3 }, "geometry": { "type": "Point", "coordinates": [ 11.73880171318142, 52.02453376455108 ] } },
{ "type": "Feature", "properties": { "station": "MAGDEBURG-BUCKAU", "river_km": 325.39, "agency": "STANDORT MAGDEBURG", "station_id": "502170", "river_name": "ELBE", "avg_discharge": 0.1328125, "flood_risk_score": 0.0, "flood_risk_category": "Very Low", "forecast_steps": 3 }, "geometry": { "type": "Point", "coordinates": [ 11.634986074196533, 52.119271087620774 ] } },
{ "type": "Feature", "properties": { "station": "MAGDEBURG-STROMBRÜCKE", "river_km": 326.67, "agency": "STANDORT MAGDEBURG", "station_id": "502180", "river_name": "ELBE", "avg_discharge": 0.1328125, "flood_risk_score": 0.0, "flood_risk_category": "Very Low", "forecast_steps": 3 }, "geometry": { "type": "Point", "coordinates": [ 11.644334378196522, 52.12969780011619 ] } },
{ "type": "Feature", "properties": { "station": "ROTHENSEE", "river_km": 333.12, "agency": "STANDORT MAGDEBURG", "station_id": "502210", "river_name": "ELBE", "avg_discharge": 0.1328125, "flood_risk_score": 0.0, "flood_risk_category": "Very Low", "forecast_steps": 3 }, "geometry": { "type": "Point", "coordinates": [ 11.68265328901543, 52.180952761398899 ] } },
{ "type": "Feature", "properties": { "station": "NIEGRIPP AP", "river_km": 343.6, "agency": "STANDORT MAGDEBURG", "station_id": "502240", "river_name": "ELBE", "avg_discharge": 0.1328125, "flood_risk_score": 0.0, "flood_risk_category": "Very Low", "forecast_steps": 3 }, "geometry": { "type": "Point", "coordinates": [ 11.737554478861217, 52.249748363875163 ] } },
{ "type": "Feature", "properties": { "station": "ROGÄTZ", "river_km": 350.64, "agency": "STANDORT MAGDEBURG", "station_id": "502250", "river_name": "ELBE", "avg_discharge": 0.1328125, "flood_risk_score": 0.0, "flood_risk_category": "Very Low", "forecast_steps": 3 }, "geometry": { "type": "Point", "coordinates": [ 11.768833909111391, 52.313845401799362 ] } },
{ "type": "Feature", "properties": { "station": "TANGERMÜNDE", "river_km": 388.26, "agency": "STANDORT MAGDEBURG", "station_id": "502350", "river_name": "ELBE", "avg_discharge": 0.0390625, "flood_risk_score": 0.0, "flood_risk_category": "Very Low", "forecast_steps": 3 }, "geometry": { "type": "Point", "coordinates": [ 11.978056091329778, 52.541306122508246 ] } },
{ "type": "Feature", "properties": { "station": "STORKAU", "river_km": 396.11, "agency": "STANDORT MAGDEBURG", "station_id": "502370", "river_name": "ELBE", "avg_discharge": 378.82291666666669, "flood_risk_score": 3.0, "flood_risk_category": "Medium", "forecast_steps": 3 }, "geometry": { "type": "Point", "coordinates": [ 12.002482667412879, 52.610404798598815 ] } },
{ "type": "Feature", "properties": { "station": "SANDAU", "river_km": 416.06, "agency": "STANDORT MAGDEBURG", "station_id": "502430", "river_name": "ELBE", "avg_discharge": 380.89322916666669, "flood_risk_score": 3.0, "flood_risk_category": "Medium", "forecast_steps": 3 }, "geometry": { "type": "Point", "coordinates": [ 12.031305110634692, 52.78476981254726 ] } },
{ "type": "Feature", "properties": { "station": "SCHARLEUK", "river_km": 447.22, "agency": "STANDORT MAGDEBURG", "station_id": "503030", "river_name": "ELBE", "avg_discharge": 380.89322916666669, "flood_risk_score": 3.0, "flood_risk_category": "Medium", "forecast_steps": 3 }, "geometry": { "type": "Point", "coordinates": [ 11.83755792821885, 52.956969219117298 ] } },
{ "type": "Feature", "properties": { "station": "WITTENBERGE", "river_km": 453.98, "agency": "STANDORT MAGDEBURG", "station_id": "503050", "river_name": "ELBE", "avg_discharge": 380.89322916666669, "flood_risk_score": 3.0, "flood_risk_category": "Medium", "forecast_steps": 3 }, "geometry": { "type": "Point", "coordinates": [ 11.759442997321839, 52.985528648267035 ] } },
{ "type": "Feature", "properties": { "station": "MÜGGENDORF", "river_km": 463.94, "agency": "STANDORT MAGDEBURG", "station_id": "503070", "river_name": "ELBE", "avg_discharge": 380.89322916666669, "flood_risk_score": 3.0, "flood_risk_category": "Medium", "forecast_steps": 3 }, "geometry": { "type": "Point", "coordinates": [ 11.656212633914112, 53.007901346124136 ] } },
{ "type": "Feature", "properties": { "station": "SCHNACKENBURG", "river_km": 474.56, "agency": "STANDORT MAGDEBURG", "station_id": "5910010", "river_name": "ELBE", "avg_discharge": 380.89322916666669, "flood_risk_score": 3.0, "flood_risk_category": "Medium", "forecast_steps": 3 }, "geometry": { "type": "Point", "coordinates": [ 11.569161666053072, 53.038250533644579 ] } },
{ "type": "Feature", "properties": { "station": "LENZEN", "river_km": 484.7, "agency": "STANDORT MAGDEBURG", "station_id": "503120", "river_name": "ELBE", "avg_discharge": 380.89322916666669, "flood_risk_score": 3.0, "flood_risk_category": "Medium", "forecast_steps": 3 }, "geometry": { "type": "Point", "coordinates": [ 11.455945648065997, 53.079993007711771 ] } },
{ "type": "Feature", "properties": { "station": "GORLEBEN", "river_km": 492.95, "agency": "STANDORT MAGDEBURG", "station_id": "5910020", "river_name": "ELBE", "avg_discharge": 380.89322916666669, "flood_risk_score": 3.0, "flood_risk_category": "Medium", "forecast_steps": 3 }, "geometry": { "type": "Point", "coordinates": [ 11.349502776620287, 53.050281787856314 ] } },
{ "type": "Feature", "properties": { "station": "DÖMITZ", "river_km": 504.7, "agency": "STANDORT LAUENBURG", "station_id": "5910025", "river_name": "ELBE", "avg_discharge": 380.89322916666669, "flood_risk_score": 3.0, "flood_risk_category": "Medium", "forecast_steps": 3 }, "geometry": { "type": "Point", "coordinates": [ 11.242911991019788, 53.140333203100887 ] } },
{ "type": "Feature", "properties": { "station": "DAMNATZ", "river_km": 509.35, "agency": "STANDORT LAUENBURG", "station_id": "5910030", "river_name": "ELBE", "avg_discharge": 380.89322916666669, "flood_risk_score": 3.0, "flood_risk_category": "Medium", "forecast_steps": 3 }, "geometry": { "type": "Point", "coordinates": [ 11.179444824444529, 53.137768821107286 ] } },
{ "type": "Feature", "properties": { "station": "HITZACKER", "river_km": 522.639, "agency": "STANDORT LAUENBURG", "station_id": "5920010", "river_name": "ELBE", "avg_discharge": 380.89322916666669, "flood_risk_score": 3.0, "flood_risk_category": "Medium", "forecast_steps": 3 }, "geometry": { "type": "Point", "coordinates": [ 11.045488139838355, 53.154625758414028 ] } },
{ "type": "Feature", "properties": { "station": "NEU DARCHAU", "river_km": 536.385, "agency": "STANDORT LAUENBURG", "station_id": "5930010", "river_name": "ELBE", "avg_discharge": 380.89322916666669, "flood_risk_score": 3.0, "flood_risk_category": "Medium", "forecast_steps": 3 }, "geometry": { "type": "Point", "coordinates": [ 10.888818550302116, 53.232257595868504 ] } },
{ "type": "Feature", "properties": { "station": "BLECKEDE", "river_km": 549.633, "agency": "STANDORT LAUENBURG", "station_id": "5930020", "river_name": "ELBE", "avg_discharge": 380.89322916666669, "flood_risk_score": 3.0, "flood_risk_category": "Medium", "forecast_steps": 3 }, "geometry": { "type": "Point", "coordinates": [ 10.735002069366594, 53.295083139208501 ] } },
{ "type": "Feature", "properties": { "station": "BOIZENBURG", "river_km": 558.534, "agency": "STANDORT LAUENBURG", "station_id": "5930033", "river_name": "ELBE", "avg_discharge": 380.89322916666669, "flood_risk_score": 3.0, "flood_risk_category": "Medium", "forecast_steps": 3 }, "geometry": { "type": "Point", "coordinates": [ 10.717767373387286, 53.375468587983718 ] } },
{ "type": "Feature", "properties": { "station": "HOHNSTORF", "river_km": 568.987, "agency": "STANDORT LAUENBURG", "station_id": "5930040", "river_name": "ELBE", "avg_discharge": 380.89322916666669, "flood_risk_score": 3.0, "flood_risk_category": "Medium", "forecast_steps": 3 }, "geometry": { "type": "Point", "coordinates": [ 10.558835867409144, 53.3662640634696 ] } },
{ "type": "Feature", "properties": { "station": "ARTLENBURG", "river_km": 573.86, "agency": "STANDORT LAUENBURG", "station_id": "5930050", "river_name": "ELBE", "avg_discharge": 380.89322916666669, "flood_risk_score": 3.0, "flood_risk_category": "Medium", "forecast_steps": 3 }, "geometry": { "type": "Point", "coordinates": [ 10.489216126379299, 53.37617386385017 ] } },
{ "type": "Feature", "properties": { "station": "GEESTHACHT", "river_km": 583.393, "agency": "STANDORT LAUENBURG", "station_id": "5930060", "river_name": "ELBE", "avg_discharge": 380.89322916666669, "flood_risk_score": 3.0, "flood_risk_category": "Medium", "forecast_steps": 3 }, "geometry": { "type": "Point", "coordinates": [ 10.374521506119242, 53.42650514468064 ] } },
{ "type": "Feature", "properties": { "station": "WEHR GEESTHACHT UP", "river_km": 585.99, "agency": "STANDORT LAUENBURG", "station_id": "5930062", "river_name": "ELBE", "avg_discharge": 380.89322916666669, "flood_risk_score": 3.0, "flood_risk_category": "Medium", "forecast_steps": 3 }, "geometry": { "type": "Point", "coordinates": [ 10.334765293678316, 53.42329361658247 ] } },
{ "type": "Feature", "properties": { "station": "ALTENGAMME", "river_km": 588.787, "agency": "STANDORT LAUENBURG", "station_id": "5930070", "river_name": "ELBE", "avg_discharge": 380.89322916666669, "flood_risk_score": 3.0, "flood_risk_category": "Medium", "forecast_steps": 3 }, "geometry": { "type": "Point", "coordinates": [ 10.296789949355059, 53.430843601165542 ] } },
{ "type": "Feature", "properties": { "station": "ZOLLENSPIEKER", "river_km": 598.159, "agency": "STANDORT LAUENBURG", "station_id": "5930090", "river_name": "ELBE", "avg_discharge": 380.89322916666669, "flood_risk_score": 3.0, "flood_risk_category": "Medium", "forecast_steps": 3 }, "geometry": { "type": "Point", "coordinates": [ 10.185374358546778, 53.398708728009652 ] } },
{ "type": "Feature", "properties": { "station": "OVER", "river_km": 605.273, "agency": "STANDORT LAUENBURG", "station_id": "5950010", "river_name": "ELBE", "avg_discharge": 380.89322916666669, "flood_risk_score": 3.0, "flood_risk_category": "Medium", "forecast_steps": 3 }, "geometry": { "type": "Point", "coordinates": [ 10.101120233110475, 53.428692082557532 ] } },
{ "type": "Feature", "properties": { "station": "BUNTHAUS", "river_km": 609.9, "agency": "HAMBURG PORT AUTHORITY", "station_id": "5952020", "river_name": "ELBE", "avg_discharge": 380.89322916666669, "flood_risk_score": 3.0, "flood_risk_category": "Medium", "forecast_steps": 3 }, "geometry": { "type": "Point", "coordinates": [ 10.064017807378915, 53.461413772444587 ] } },
{ "type": "Feature", "properties": { "station": "HAMBURG-HARBURG", "river_km": 615.0, "agency": "HAMBURG PORT AUTHORITY", "station_id": "5952025", "river_name": "ELBE", "avg_discharge": 380.89322916666669, "flood_risk_score": 3.0, "flood_risk_category": "Medium", "forecast_steps": 3 }, "geometry": { "type": "Point", "coordinates": [ 9.991825587189057, 53.472726152488718 ] } },
{ "type": "Feature", "properties": { "station": "SCHÖPFSTELLE", "river_km": 615.3, "agency": "HAMBURG PORT AUTHORITY", "station_id": "5952030", "river_name": "ELBE", "avg_discharge": 380.89322916666669, "flood_risk_score": 3.0, "flood_risk_category": "Medium", "forecast_steps": 3 }, "geometry": { "type": "Point", "coordinates": [ 10.061595155813295, 53.508391733116532 ] } },
{ "type": "Feature", "properties": { "station": "HAMBURG ST. PAULI", "river_km": 623.1, "agency": "HAMBURG PORT AUTHORITY", "station_id": "5952050", "river_name": "ELBE", "avg_discharge": 380.89322916666669, "flood_risk_score": 3.0, "flood_risk_category": "Medium", "forecast_steps": 3 }, "geometry": { "type": "Point", "coordinates": [ 9.969965378663103, 53.545442243928555 ] } },
{ "type": "Feature", "properties": { "station": "SEEMANNSHÖFT", "river_km": 628.9, "agency": "HAMBURG PORT AUTHORITY", "station_id": "5952060", "river_name": "ELBE", "avg_discharge": 380.89322916666669, "flood_risk_score": 3.0, "flood_risk_category": "Medium", "forecast_steps": 3 }, "geometry": { "type": "Point", "coordinates": [ 9.88085916522793, 53.540164376733998 ] } },
{ "type": "Feature", "properties": { "station": "CRANZ", "river_km": 634.42, "agency": "STANDORT HAMBURG", "station_id": "5950070", "river_name": "ELBE", "avg_discharge": 380.89322916666669, "flood_risk_score": 3.0, "flood_risk_category": "Medium", "forecast_steps": 3 }, "geometry": { "type": "Point", "coordinates": [ 9.791537018911869, 53.535943759714243 ] } },
{ "type": "Feature", "properties": { "station": "BLANKENESE UF", "river_km": 635.0, "agency": "HAMBURG PORT AUTHORITY", "station_id": "5952065", "river_name": "ELBE", "avg_discharge": 380.89322916666669, "flood_risk_score": 3.0, "flood_risk_category": "Medium", "forecast_steps": 3 }, "geometry": { "type": "Point", "coordinates": [ 9.807108136707472, 53.555576992839399 ] } },
{ "type": "Feature", "properties": { "station": "SCHULAU", "river_km": 641.0, "agency": "STANDORT HAMBURG", "station_id": "5950090", "river_name": "ELBE", "avg_discharge": 380.89322916666669, "flood_risk_score": 3.0, "flood_risk_category": "Medium", "forecast_steps": 3 }, "geometry": { "type": "Point", "coordinates": [ 9.702887479041944, 53.567910564418142 ] } },
{ "type": "Feature", "properties": { "station": "HAHNÖFER SAND WEST SIEL", "river_km": 641.5, "agency": "STANDORT HAMBURG", "station_id": "126017", "river_name": "ELBE", "avg_discharge": 380.89322916666669, "flood_risk_score": 3.0, "flood_risk_category": "Medium", "forecast_steps": 3 }, "geometry": { "type": "Point", "coordinates": [ 9.690490444910012, 53.548237972951348 ] } },
{ "type": "Feature", "properties": { "station": "LÜHORT", "river_km": 645.5, "agency": "STANDORT HAMBURG", "station_id": "5960010", "river_name": "ELBE", "avg_discharge": 380.89322916666669, "flood_risk_score": 3.0, "flood_risk_category": "Medium", "forecast_steps": 3 }, "geometry": { "type": "Point", "coordinates": [ 9.633361851581585, 53.571574547663595 ] } },
{ "type": "Feature", "properties": { "station": "HETLINGEN", "river_km": 650.5, "agency": "STANDORT HAMBURG", "station_id": "5970010", "river_name": "ELBE", "avg_discharge": 380.89322916666669, "flood_risk_score": 3.0, "flood_risk_category": "Medium", "forecast_steps": 3 }, "geometry": { "type": "Point", "coordinates": [ 9.584318424577651, 53.609411339997216 ] } },
{ "type": "Feature", "properties": { "station": "TWIELENFLETH SIEL", "river_km": 650.7, "agency": "STANDORT HAMBURG", "station_id": "126015", "river_name": "ELBE", "avg_discharge": 380.89322916666669, "flood_risk_score": 3.0, "flood_risk_category": "Medium", "forecast_steps": 3 }, "geometry": { "type": "Point", "coordinates": [ 9.567137091002859, 53.598754486767803 ] } },
{ "type": "Feature", "properties": { "station": "STADERSAND", "river_km": 654.9, "agency": "STANDORT HAMBURG", "station_id": "5970013", "river_name": "ELBE", "avg_discharge": 380.89322916666669, "flood_risk_score": 3.0, "flood_risk_category": "Medium", "forecast_steps": 3 }, "geometry": { "type": "Point", "coordinates": [ 9.526602277838382, 53.629729305481369 ] } },
{ "type": "Feature", "properties": { "station": "PINNAU-SPERRWERK AP", "river_km": 658.444, "agency": "STANDORT HAMBURG", "station_id": "5970019", "river_name": "ELBE", "avg_discharge": 380.89322916666669, "flood_risk_score": 3.0, "flood_risk_category": "Medium", "forecast_steps": 3 }, "geometry": { "type": "Point", "coordinates": [ 9.558227529245832, 53.67138896324078 ] } },
{ "type": "Feature", "properties": { "station": "GRAUERORT REEDE", "river_km": 660.738, "agency": "STANDORT HAMBURG", "station_id": "5970026", "river_name": "ELBE", "avg_discharge": 380.89322916666669, "flood_risk_score": 3.0, "flood_risk_category": "Medium", "forecast_steps": 3 }, "geometry": { "type": "Point", "coordinates": [ 9.494796126117519, 53.679149710879955 ] } },
{ "type": "Feature", "properties": { "station": "KRÜCKAU-SPERRWERK AP", "river_km": 663.3, "agency": "STANDORT HAMBURG", "station_id": "5970024", "river_name": "ELBE", "avg_discharge": 380.89322916666669, "flood_risk_score": 3.0, "flood_risk_category": "Medium", "forecast_steps": 3 }, "geometry": { "type": "Point", "coordinates": [ 9.526336706347767, 53.716140615435769 ] } },
{ "type": "Feature", "properties": { "station": "KOLLMAR", "river_km": 666.9, "agency": "STANDORT HAMBURG", "station_id": "5970025", "river_name": "ELBE", "avg_discharge": 380.89322916666669, "flood_risk_score": 3.0, "flood_risk_category": "Medium", "forecast_steps": 3 }, "geometry": { "type": "Point", "coordinates": [ 9.459761691832878, 53.731123472064127 ] } },
{ "type": "Feature", "properties": { "station": "KRAUTSAND REEDE", "river_km": 671.787, "agency": "STANDORT HAMBURG", "station_id": "5970031", "river_name": "ELBE", "avg_discharge": 380.89322916666669, "flood_risk_score": 3.0, "flood_risk_category": "Medium", "forecast_steps": 3 }, "geometry": { "type": "Point", "coordinates": [ 9.391186976193611, 53.754704954639301 ] } },
{ "type": "Feature", "properties": { "station": "GLÜCKSTADT", "river_km": 674.0, "agency": "STANDORT HAMBURG", "station_id": "5970035", "river_name": "ELBE", "avg_discharge": 380.89322916666669, "flood_risk_score": 3.0, "flood_risk_category": "Medium", "forecast_steps": 3 }, "geometry": { "type": "Point", "coordinates": [ 9.409429815364883, 53.784361153680869 ] } },
{ "type": "Feature", "properties": { "station": "D4 RHINPLATE-NORD OBERFLÄCHE", "river_km": 676.5, "agency": "STANDORT HAMBURG", "station_id": "71160798", "river_name": "ELBE", "avg_discharge": 380.89322916666669, "flood_risk_score": 3.0, "flood_risk_category": "Medium", "forecast_steps": 3 }, "geometry": { "type": "Point", "coordinates": [ 9.372247025803899, 53.796584935568923 ] } },
{ "type": "Feature", "properties": { "station": "STÖR-SPERRWERK AP", "river_km": 678.636, "agency": "STANDORT HAMBURG", "station_id": "5970041", "river_name": "ELBE", "avg_discharge": 380.89322916666669, "flood_risk_score": 3.0, "flood_risk_category": "Medium", "forecast_steps": 3 }, "geometry": { "type": "Point", "coordinates": [ 9.400981175517032, 53.825945765077037 ] } },
{ "type": "Feature", "properties": { "station": "BROKDORF", "river_km": 684.2, "agency": "STANDORT HAMBURG", "station_id": "5970050", "river_name": "ELBE", "avg_discharge": 380.89322916666669, "flood_risk_score": 3.0, "flood_risk_category": "Medium", "forecast_steps": 3 }, "geometry": { "type": "Point", "coordinates": [ 9.316029583340883, 53.86270350726209 ] } },
{ "type": "Feature", "properties": { "station": "SCHÖNEWORTH SIEL", "river_km": 685.1, "agency": "STANDORT HAMBURG", "station_id": "126005", "river_name": "ELBE", "avg_discharge": 380.89322916666669, "flood_risk_score": 3.0, "flood_risk_category": "Medium", "forecast_steps": 3 }, "geometry": { "type": "Point", "coordinates": [ 9.288200593012338, 53.846897132615574 ] } },
{ "type": "Feature", "properties": { "station": "BRUNSBÜTTEL MPM", "river_km": 695.214, "agency": "STANDORT CUXHAVEN", "station_id": "5970094", "river_name": "ELBE", "avg_discharge": 380.89322916666669, "flood_risk_score": 3.0, "flood_risk_category": "Medium", "forecast_steps": 3 }, "geometry": { "type": "Point", "coordinates": [ 9.148744899065207, 53.887806802082785 ] } },
{ "type": "Feature", "properties": { "station": "OSTERIFF MPM", "river_km": 703.44, "agency": "STANDORT CUXHAVEN", "station_id": "5970096", "river_name": "ELBE", "avg_discharge": 380.89322916666669, "flood_risk_score": 3.0, "flood_risk_category": "Medium", "forecast_steps": 3 }, "geometry": { "type": "Point", "coordinates": [ 9.031629023778263, 53.85636872547316 ] } },
{ "type": "Feature", "properties": { "station": "OTTERNDORF MPM", "river_km": 714.02, "agency": "STANDORT CUXHAVEN", "station_id": "5990011", "river_name": "ELBE", "avg_discharge": 380.89322916666669, "flood_risk_score": 3.0, "flood_risk_category": "Medium", "forecast_steps": 3 }, "geometry": { "type": "Point", "coordinates": [ 8.870723820918471, 53.835370083569295 ] } },
{ "type": "Feature", "properties": { "station": "CUXHAVEN STEUBENHÖFT", "river_km": 724.0, "agency": "STANDORT CUXHAVEN", "station_id": "5990020", "river_name": "ELBE", "avg_discharge": 380.89322916666669, "flood_risk_score": 3.0, "flood_risk_category": "Medium", "forecast_steps": 3 }, "geometry": { "type": "Point", "coordinates": [ 8.717424884873578, 53.867685893817843 ] } },
{ "type": "Feature", "properties": { "station": "DETERSHAGEN", "river_km": 326.83, "agency": "STANDORT BRANDENBURG", "station_id": "587505", "river_name": "EHK", "avg_discharge": 0.1328125, "flood_risk_score": 0.0, "flood_risk_category": "Very Low", "forecast_steps": 3 }, "geometry": { "type": "Point", "coordinates": [ 11.762554814182451, 52.251373999809871 ] } },
{ "type": "Feature", "properties": { "station": "BURG", "river_km": 332.54, "agency": "STANDORT BRANDENBURG", "station_id": "587507", "river_name": "EHK", "avg_discharge": 0.1328125, "flood_risk_score": 0.0, "flood_risk_category": "Very Low", "forecast_steps": 3 }, "geometry": { "type": "Point", "coordinates": [ 11.832026976292189, 52.27673751102116 ] } },
{ "type": "Feature", "properties": { "station": "ZERBEN OP", "river_km": 344.686, "agency": "STANDORT BRANDENBURG", "station_id": "587510", "river_name": "EHK", "avg_discharge": 0.1328125, "flood_risk_score": 0.0, "flood_risk_category": "Very Low", "forecast_steps": 3 }, "geometry": { "type": "Point", "coordinates": [ 11.957395153939682, 52.339613349910408 ] } },
{ "type": "Feature", "properties": { "station": "ZERBEN UP", "river_km": 346.162, "agency": "STANDORT BRANDENBURG", "station_id": "587520", "river_name": "EHK", "avg_discharge": 0.046875, "flood_risk_score": 0.0, "flood_risk_category": "Very Low", "forecast_steps": 3 }, "geometry": { "type": "Point", "coordinates": [ 11.969785382757323, 52.350679895931037 ] } },
{ "type": "Feature", "properties": { "station": "GENTHIN", "river_km": 361.444, "agency": "STANDORT BRANDENBURG", "station_id": "587535", "river_name": "EHK", "avg_discharge": 1.1796875, "flood_risk_score": 0.0, "flood_risk_category": "Very Low", "forecast_steps": 3 }, "geometry": { "type": "Point", "coordinates": [ 12.140021546748292, 52.410856821612221 ] } },
{ "type": "Feature", "properties": { "station": "KADE", "river_km": 371.285, "agency": "STANDORT BRANDENBURG", "station_id": "587541", "river_name": "EHK", "avg_discharge": 2.1354166666666665, "flood_risk_score": 0.0, "flood_risk_category": "Very Low", "forecast_steps": 3 }, "geometry": { "type": "Point", "coordinates": [ 12.279351110358599, 52.397048725110388 ] } },
{ "type": "Feature", "properties": { "station": "WUSTERWITZ OP", "river_km": 376.56, "agency": "STANDORT BRANDENBURG", "station_id": "587540", "river_name": "EHK", "avg_discharge": 2.2916666666666665, "flood_risk_score": 0.0, "flood_risk_category": "Very Low", "forecast_steps": 3 }, "geometry": { "type": "Point", "coordinates": [ 12.356118651827487, 52.394272169365323 ] } },
{ "type": "Feature", "properties": { "station": "WUSTERWITZ UP", "river_km": 376.965, "agency": "STANDORT BRANDENBURG", "station_id": "587550", "river_name": "EHK", "avg_discharge": 2.2916666666666665, "flood_risk_score": 0.0, "flood_risk_category": "Very Low", "forecast_steps": 3 }, "geometry": { "type": "Point", "coordinates": [ 12.370473537607852, 52.392835103661973 ] } },
{ "type": "Feature", "properties": { "station": "BÜSSAU UP", "river_km": 3.4, "agency": "STANDORT LAUENBURG", "station_id": "9669040", "river_name": "ELK", "avg_discharge": 380.89322916666669, "flood_risk_score": 3.0, "flood_risk_category": "Medium", "forecast_steps": 3 }, "geometry": { "type": "Point", "coordinates": [ 10.625385063504453, 53.817548829050502 ] } },
{ "type": "Feature", "properties": { "station": "DONNERSCHLEUSE OP", "river_km": 20.722, "agency": "STANDORT LAUENBURG", "station_id": "9660049", "river_name": "ELK", "avg_discharge": 380.89322916666669, "flood_risk_score": 3.0, "flood_risk_category": "Medium", "forecast_steps": 3 }, "geometry": { "type": "Point", "coordinates": [ 10.636901880006109, 53.672031846265689 ] } },
{ "type": "Feature", "properties": { "station": "MÖLLN", "river_km": 26.772, "agency": "STANDORT LAUENBURG", "station_id": "9660050", "river_name": "ELK", "avg_discharge": 380.89322916666669, "flood_risk_score": 3.0, "flood_risk_category": "Medium", "forecast_steps": 3 }, "geometry": { "type": "Point", "coordinates": [ 10.674800312274579, 53.624453836540539 ] } },
{ "type": "Feature", "properties": { "station": "OSLOSS", "river_km": 9.72, "agency": "UELZEN", "station_id": "90100100", "river_name": "ESK", "avg_discharge": 0.0, "flood_risk_score": null, "flood_risk_category": "Unknown", "forecast_steps": 0 }, "geometry": { "type": "Point", "coordinates": [ 10.667920057338701, 52.477670688294062 ] } },
{ "type": "Feature", "properties": { "station": "WITTINGEN", "river_km": 39.0, "agency": "UELZEN", "station_id": "90100101", "river_name": "ESK", "avg_discharge": 380.89322916666669, "flood_risk_score": 3.0, "flood_risk_category": "Medium", "forecast_steps": 3 }, "geometry": { "type": "Point", "coordinates": [ 10.664477396292549, 52.727726831464516 ] } },
{ "type": "Feature", "properties": { "station": "UELZEN OW", "river_km": 60.38, "agency": "UELZEN", "station_id": "90100111", "river_name": "ESK", "avg_discharge": 380.89322916666669, "flood_risk_score": 3.0, "flood_risk_category": "Medium", "forecast_steps": 3 }, "geometry": { "type": "Point", "coordinates": [ 10.614719701462517, 52.90933661624463 ] } },
{ "type": "Feature", "properties": { "station": "UELZEN", "river_km": 60.68, "agency": "UELZEN", "station_id": "90100113", "river_name": "ESK", "avg_discharge": 380.89322916666669, "flood_risk_score": 3.0, "flood_risk_category": "Medium", "forecast_steps": 3 }, "geometry": { "type": "Point", "coordinates": [ 10.6135154863819, 52.911931969920623 ] } },
{ "type": "Feature", "properties": { "station": "UELZEN UW", "river_km": 60.98, "agency": "UELZEN", "station_id": "90100110", "river_name": "ESK", "avg_discharge": 380.89322916666669, "flood_risk_score": 3.0, "flood_risk_category": "Medium", "forecast_steps": 3 }, "geometry": { "type": "Point", "coordinates": [ 10.612311130332071, 52.914527311414254 ] } },
{ "type": "Feature", "properties": { "station": "BEVENSEN", "river_km": 79.72, "agency": "UELZEN", "station_id": "90100112", "river_name": "ESK", "avg_discharge": 380.89322916666669, "flood_risk_score": 3.0, "flood_risk_category": "Medium", "forecast_steps": 3 }, "geometry": { "type": "Point", "coordinates": [ 10.603346356554994, 53.074796562018399 ] } },
{ "type": "Feature", "properties": { "station": "LÜNEBURG OW", "river_km": 104.0, "agency": "UELZEN", "station_id": "90100121", "river_name": "ESK", "avg_discharge": 380.89322916666669, "flood_risk_score": 3.0, "flood_risk_category": "Medium", "forecast_steps": 3 }, "geometry": { "type": "Point", "coordinates": [ 10.485459016759826, 53.272487681000278 ] } },
{ "type": "Feature", "properties": { "station": "LÜNEBURG", "river_km": 105.1, "agency": "UELZEN", "station_id": "90100123", "river_name": "ESK", "avg_discharge": 380.89322916666669, "flood_risk_score": 3.0, "flood_risk_category": "Medium", "forecast_steps": 3 }, "geometry": { "type": "Point", "coordinates": [ 10.486987882835402, 53.282959103518309 ] } },
{ "type": "Feature", "properties": { "station": "LÜNEBURG UW", "river_km": 106.3, "agency": "UELZEN", "station_id": "90100120", "river_name": "ESK", "avg_discharge": 380.89322916666669, "flood_risk_score": 3.0, "flood_risk_category": "Medium", "forecast_steps": 3 }, "geometry": { "type": "Point", "coordinates": [ 10.488563061269605, 53.293428207619868 ] } },
{ "type": "Feature", "properties": { "station": "ARTLENBURG-ESK", "river_km": 114.7, "agency": "UELZEN", "station_id": "90100122", "river_name": "ESK", "avg_discharge": 380.89322916666669, "flood_risk_score": 3.0, "flood_risk_category": "Medium", "forecast_steps": 3 }, "geometry": { "type": "Point", "coordinates": [ 10.501986716627135, 53.368564062093022 ] } },
{ "type": "Feature", "properties": { "station": "VERSEN WEHR OP", "river_km": null, "agency": "STANDORT MEPPEN", "station_id": "3730001", "river_name": "EMS", "avg_discharge": 380.89322916666669, "flood_risk_score": 3.0, "flood_risk_category": "Medium", "forecast_steps": 3 }, "geometry": { "type": "Point", "coordinates": [ 7.247822316545699, 52.731304360717694 ] } },
{ "type": "Feature", "properties": { "station": "PAPENBURG", "river_km": 0.39, "agency": "STANDORT EMDEN", "station_id": "3790010", "river_name": "EMS", "avg_discharge": 380.89322916666669, "flood_risk_score": 3.0, "flood_risk_category": "Medium", "forecast_steps": 3 }, "geometry": { "type": "Point", "coordinates": [ 7.365594761853153, 53.108190811003816 ] } },
{ "type": "Feature", "properties": { "station": "WEENER", "river_km": 6.852, "agency": "STANDORT EMDEN", "station_id": "3790020", "river_name": "EMS", "avg_discharge": 380.89322916666669, "flood_risk_score": 3.0, "flood_risk_category": "Medium", "forecast_steps": 3 }, "geometry": { "type": "Point", "coordinates": [ 7.371913437651044, 53.161188005445908 ] } },
{ "type": "Feature", "properties": { "station": "LEERORT", "river_km": 14.79, "agency": "STANDORT EMDEN", "station_id": "3910010", "river_name": "EMS", "avg_discharge": 380.89322916666669, "flood_risk_score": 3.0, "flood_risk_category": "Medium", "forecast_steps": 3 }, "geometry": { "type": "Point", "coordinates": [ 7.42619080273335, 53.215335165113054 ] } },
{ "type": "Feature", "properties": { "station": "TERBORG", "river_km": 24.67, "agency": "STANDORT EMDEN", "station_id": "3910020", "river_name": "EMS", "avg_discharge": 380.89322916666669, "flood_risk_score": 3.0, "flood_risk_category": "Medium", "forecast_steps": 3 }, "geometry": { "type": "Point", "coordinates": [ 7.396102412436918, 53.292703996899462 ] } },
{ "type": "Feature", "properties": { "station": "POGUM", "river_km": 35.302, "agency": "STANDORT EMDEN", "station_id": "3950020", "river_name": "EMS", "avg_discharge": 380.89322916666669, "flood_risk_score": 3.0, "flood_risk_category": "Medium", "forecast_steps": 3 }, "geometry": { "type": "Point", "coordinates": [ 7.259801109021893, 53.321350649000479 ] } },
{ "type": "Feature", "properties": { "station": "EMDEN NEUE SEESCHLEUSE", "river_km": 40.45, "agency": "STANDORT EMDEN", "station_id": "3970010", "river_name": "EMS", "avg_discharge": 380.89322916666669, "flood_risk_score": 3.0, "flood_risk_category": "Medium", "forecast_steps": 3 }, "geometry": { "type": "Point", "coordinates": [ 7.186347889541315, 53.336780956258409 ] } },
{ "type": "Feature", "properties": { "station": "KNOCK", "river_km": 50.848, "agency": "STANDORT EMDEN", "station_id": "3990010", "river_name": "EMS", "avg_discharge": 380.89322916666669, "flood_risk_score": 3.0, "flood_risk_category": "Medium", "forecast_steps": 3 }, "geometry": { "type": "Point", "coordinates": [ 7.03067362267113, 53.327172721521933 ] } },
{ "type": "Feature", "properties": { "station": "DUKEGAT", "river_km": 65.69, "agency": "STANDORT EMDEN", "station_id": "3990020", "river_name": "EMS", "avg_discharge": 380.89322916666669, "flood_risk_score": 3.0, "flood_risk_category": "Medium", "forecast_steps": 3 }, "geometry": { "type": "Point", "coordinates": [ 6.926206572590534, 53.433601792990352 ] } },
{ "type": "Feature", "properties": { "station": "EMSHÖRN", "river_km": 74.32, "agency": "STANDORT EMDEN", "station_id": "9340010", "river_name": "EMS", "avg_discharge": 380.89322916666669, "flood_risk_score": 3.0, "flood_risk_category": "Medium", "forecast_steps": 3 }, "geometry": { "type": "Point", "coordinates": [ 6.841204438110378, 53.493516900059632 ] } },
{ "type": "Feature", "properties": { "station": "Wachendorf", "river_km": 96.71, "agency": "STANDORT MEPPEN", "station_id": "3500031", "river_name": "EMS", "avg_discharge": 0.0390625, "flood_risk_score": 0.0, "flood_risk_category": "Very Low", "forecast_steps": 3 }, "geometry": { "type": "Point", "coordinates": [ 7.26952383762572, 52.545655286248298 ] } },
{ "type": "Feature", "properties": { "station": "FUESTRUP", "river_km": 102.177, "agency": "STANDORT MEPPEN", "station_id": "3310010", "river_name": "EMS", "avg_discharge": 0.1328125, "flood_risk_score": 0.0, "flood_risk_category": "Very Low", "forecast_steps": 3 }, "geometry": { "type": "Point", "coordinates": [ 7.680240800859245, 52.040266796987986 ] } },
{ "type": "Feature", "properties": { "station": "RHEINE UNTERSCHLEUSE", "river_km": 153.03, "agency": "STANDORT MEPPEN", "station_id": "3390020", "river_name": "EMS", "avg_discharge": 0.1328125, "flood_risk_score": 0.0, "flood_risk_category": "Very Low", "forecast_steps": 3 }, "geometry": { "type": "Point", "coordinates": [ 7.434078039946324, 52.288026295065244 ] } },
{ "type": "Feature", "properties": { "station": "LINGEN-DARME", "river_km": 196.2, "agency": "STANDORT MEPPEN", "station_id": "3500015", "river_name": "EMS", "avg_discharge": 0.0, "flood_risk_score": null, "flood_risk_category": "Unknown", "forecast_steps": 0 }, "geometry": { "type": "Point", "coordinates": [ 7.288341577719378, 52.496588717601348 ] } },
{ "type": "Feature", "properties": { "station": "DALUM", "river_km": 212.04, "agency": "STANDORT MEPPEN", "station_id": "3550040", "river_name": "EMS", "avg_discharge": 0.03125, "flood_risk_score": 0.0, "flood_risk_category": "Very Low", "forecast_steps": 3 }, "geometry": { "type": "Point", "coordinates": [ 7.24853010166303, 52.595602903463565 ] } },
{ "type": "Feature", "properties": { "station": "Rühle", "river_km": 223.1, "agency": "STANDORT MEPPEN", "station_id": "3500070", "river_name": "EMS", "avg_discharge": 380.89322916666669, "flood_risk_score": 3.0, "flood_risk_category": "Medium", "forecast_steps": 3 }, "geometry": { "type": "Point", "coordinates": [ 7.255831125791851, 52.670019695254325 ] } },
{ "type": "Feature", "properties": { "station": "VERSEN WEHRDURCHSTICH", "river_km": 234.78, "agency": "STANDORT MEPPEN", "station_id": "3730010", "river_name": "EMS", "avg_discharge": 380.89322916666669, "flood_risk_score": 3.0, "flood_risk_category": "Medium", "forecast_steps": 3 }, "geometry": { "type": "Point", "coordinates": [ 7.24193924512803, 52.732982950070458 ] } },
{ "type": "Feature", "properties": { "station": "BUXTEHUDE", "river_km": 0.71, "agency": "STANDORT HAMBURG", "station_id": "5950080", "river_name": "ESTE", "avg_discharge": 380.89322916666669, "flood_risk_score": 3.0, "flood_risk_category": "Medium", "forecast_steps": 3 }, "geometry": { "type": "Point", "coordinates": [ 9.703368910151168, 53.480449632714652 ] } },
{ "type": "Feature", "properties": { "station": "ESTE INNERES SPERRWERK BP", "river_km": 1.0, "agency": "STANDORT HAMBURG", "station_id": "5950081", "river_name": "ESTE", "avg_discharge": 380.89322916666669, "flood_risk_score": 3.0, "flood_risk_category": "Medium", "forecast_steps": 3 }, "geometry": { "type": "Point", "coordinates": [ 9.776501861535763, 53.532826705398314 ] } },
{ "type": "Feature", "properties": { "station": "ESTE INNERES SPERRWERK AP", "river_km": 1.0, "agency": "STANDORT HAMBURG", "station_id": "5950082", "river_name": "ESTE", "avg_discharge": 380.89322916666669, "flood_risk_score": 3.0, "flood_risk_category": "Medium", "forecast_steps": 3 }, "geometry": { "type": "Point", "coordinates": [ 9.776752370915929, 53.533025089605403 ] } },
{ "type": "Feature", "properties": { "station": "RUHLSDORF OP", "river_km": 59.2, "agency": "STANDORT EBERSWALDE", "station_id": "693010", "river_name": "FiK", "avg_discharge": 0.078125, "flood_risk_score": 0.0, "flood_risk_category": "Very Low", "forecast_steps": 3 }, "geometry": { "type": "Point", "coordinates": [ 13.566246112731822, 52.839182644181903 ] } },
{ "type": "Feature", "properties": { "station": "LEESENBRÜCK OP", "river_km": 61.1, "agency": "STANDORT EBERSWALDE", "station_id": "693030", "river_name": "FiK", "avg_discharge": 0.078125, "flood_risk_score": 0.0, "flood_risk_category": "Very Low", "forecast_steps": 3 }, "geometry": { "type": "Point", "coordinates": [ 13.59394272973959, 52.837698619928304 ] } },
{ "type": "Feature", "properties": { "station": "GRAFENBRÜCK OP", "river_km": 63.3, "agency": "STANDORT EBERSWALDE", "station_id": "693050", "river_name": "FiK", "avg_discharge": 0.015625, "flood_risk_score": 0.0, "flood_risk_category": "Very Low", "forecast_steps": 3 }, "geometry": { "type": "Point", "coordinates": [ 13.625712433964802, 52.84204282973306 ] } },
{ "type": "Feature", "properties": { "station": "EBERSWALDE OP", "river_km": 77.9, "agency": "STANDORT EBERSWALDE", "station_id": "693170", "river_name": "FiK", "avg_discharge": 0.0, "flood_risk_score": null, "flood_risk_category": "Unknown", "forecast_steps": 0 }, "geometry": { "type": "Point", "coordinates": [ 13.820930429305905, 52.835830046600456 ] } },
{ "type": "Feature", "properties": { "station": "RAGÖSE OP", "river_km": 81.0, "agency": "STANDORT EBERSWALDE", "station_id": "693190", "river_name": "FiK", "avg_discharge": 0.0, "flood_risk_score": null, "flood_risk_category": "Unknown", "forecast_steps": 0 }, "geometry": { "type": "Point", "coordinates": [ 13.856280271238068, 52.84929621515699 ] } },
{ "type": "Feature", "properties": { "station": "STECHER OP", "river_km": 84.4, "agency": "STANDORT EBERSWALDE", "station_id": "693210", "river_name": "FiK", "avg_discharge": 0.0, "flood_risk_score": null, "flood_risk_category": "Unknown", "forecast_steps": 0 }, "geometry": { "type": "Point", "coordinates": [ 13.90217408347111, 52.84003303735124 ] } },
{ "type": "Feature", "properties": { "station": "LIEPE OP", "river_km": 88.9, "agency": "STANDORT EBERSWALDE", "station_id": "693230", "river_name": "FiK", "avg_discharge": 0.0, "flood_risk_score": null, "flood_risk_category": "Unknown", "forecast_steps": 0 }, "geometry": { "type": "Point", "coordinates": [ 13.95346527855915, 52.848971179269967 ] } },
{ "type": "Feature", "properties": { "station": "LIEPE UP", "river_km": 88.9, "agency": "STANDORT EBERSWALDE", "station_id": "693240", "river_name": "FiK", "avg_discharge": 0.0, "flood_risk_score": null, "flood_risk_category": "Unknown", "forecast_steps": 0 }, "geometry": { "type": "Point", "coordinates": [ 13.954023392330507, 52.849469661056538 ] } },
{ "type": "Feature", "properties": { "station": "FREIBURG SPERRWERK", "river_km": 0.45, "agency": "STANDORT HAMBURG", "station_id": "126006", "river_name": "Freiburger Hafenpriel", "avg_discharge": 380.89322916666669, "flood_risk_score": 3.0, "flood_risk_category": "Medium", "forecast_steps": 3 }, "geometry": { "type": "Point", "coordinates": [ 9.295079440408713, 53.826925561063383 ] } },
{ "type": "Feature", "properties": { "station": "BONAFORTH", "river_km": 3.61, "agency": "HANN-MÜNDEN", "station_id": "42900201", "river_name": "FULDA", "avg_discharge": 0.1328125, "flood_risk_score": 0.0, "flood_risk_category": "Very Low", "forecast_steps": 3 }, "geometry": { "type": "Point", "coordinates": [ 9.63204247570874, 51.403491686397572 ] } },
{ "type": "Feature", "properties": { "station": "GUNTERSHAUSEN", "river_km": 43.99, "agency": "HANN-MÜNDEN", "station_id": "42900100", "river_name": "FULDA", "avg_discharge": 0.1328125, "flood_risk_score": 0.0, "flood_risk_category": "Very Low", "forecast_steps": 3 }, "geometry": { "type": "Point", "coordinates": [ 9.469333292759771, 51.226580239480626 ] } },
{ "type": "Feature", "properties": { "station": "GREBENAU", "river_km": 55.49, "agency": "HANN-MÜNDEN", "station_id": "42700202", "river_name": "FULDA", "avg_discharge": 0.1328125, "flood_risk_score": 0.0, "flood_risk_category": "Very Low", "forecast_steps": 3 }, "geometry": { "type": "Point", "coordinates": [ 9.498194415745429, 51.193130707406645 ] } },
{ "type": "Feature", "properties": { "station": "ROTENBURG", "river_km": 95.69, "agency": "HANN-MÜNDEN", "station_id": "42700100", "river_name": "FULDA", "avg_discharge": 0.1328125, "flood_risk_score": 0.0, "flood_risk_category": "Very Low", "forecast_steps": 3 }, "geometry": { "type": "Point", "coordinates": [ 9.720449743605981, 51.003767516495948 ] } },
{ "type": "Feature", "properties": { "station": "RITTERHUDE", "river_km": 25.45, "agency": "BREMEN", "station_id": "4940030", "river_name": "HAMME", "avg_discharge": 380.89322916666669, "flood_risk_score": 3.0, "flood_risk_category": "Medium", "forecast_steps": 3 }, "geometry": { "type": "Point", "coordinates": [ 8.763345493242253, 53.181928003280817 ] } },
{ "type": "Feature", "properties": { "station": "BERLIN-SPANDAU UP", "river_km": 0.55, "agency": "STANDORT BERLIN", "station_id": "580310", "river_name": "HOW", "avg_discharge": 20.6953125, "flood_risk_score": 0.0, "flood_risk_category": "Very Low", "forecast_steps": 3 }, "geometry": { "type": "Point", "coordinates": [ 13.209346222164319, 52.5400640053751 ] } },
{ "type": "Feature", "properties": { "station": "BERLIN-SPANDAU OP", "river_km": 0.76, "agency": "STANDORT BERLIN", "station_id": "580300", "river_name": "HOW", "avg_discharge": 20.6953125, "flood_risk_score": 0.0, "flood_risk_category": "Very Low", "forecast_steps": 3 }, "geometry": { "type": "Point", "coordinates": [ 13.209041700232952, 52.541855530277722 ] } },
{ "type": "Feature", "properties": { "station": "BORGSDORF", "river_km": 20.3, "agency": "STANDORT EBERSWALDE", "station_id": "581591", "river_name": "HOW", "avg_discharge": 0.0234375, "flood_risk_score": 0.0, "flood_risk_category": "Very Low", "forecast_steps": 3 }, "geometry": { "type": "Point", "coordinates": [ 13.251248021218911, 52.700485415121122 ] } },
{ "type": "Feature", "properties": { "station": "LEHNITZ UP", "river_km": 28.4, "agency": "STANDORT EBERSWALDE", "station_id": "581590", "river_name": "HOW", "avg_discharge": 0.0234375, "flood_risk_score": 0.0, "flood_risk_category": "Very Low", "forecast_steps": 3 }, "geometry": { "type": "Point", "coordinates": [ 13.280309077168134, 52.767405149955707 ] } },
{ "type": "Feature", "properties": { "station": "LEHNITZ OP", "river_km": 28.7, "agency": "STANDORT EBERSWALDE", "station_id": "581580", "river_name": "HOW", "avg_discharge": 0.0234375, "flood_risk_score": 0.0, "flood_risk_category": "Very Low", "forecast_steps": 3 }, "geometry": { "type": "Point", "coordinates": [ 13.280417239655693, 52.767556775701898 ] } },
{ "type": "Feature", "properties": { "station": "NIEDERFINOW SHW OP", "river_km": 77.4, "agency": "STANDORT EBERSWALDE", "station_id": "692080", "river_name": "HOW", "avg_discharge": 0.0, "flood_risk_score": null, "flood_risk_category": "Unknown", "forecast_steps": 0 }, "geometry": { "type": "Point", "coordinates": [ 13.936478119099975, 52.850068679034287 ] } },
{ "type": "Feature", "properties": { "station": "NIEDERFINOW SHW UP", "river_km": 78.0, "agency": "STANDORT EBERSWALDE", "station_id": "692090", "river_name": "HOW", "avg_discharge": 0.0, "flood_risk_score": null, "flood_risk_category": "Unknown", "forecast_steps": 0 }, "geometry": { "type": "Point", "coordinates": [ 13.944325914206898, 52.849042378700318 ] } },
{ "type": "Feature", "properties": { "station": "HOHENSAATEN WEST BP", "river_km": 92.7, "agency": "STANDORT EBERSWALDE", "station_id": "603310", "river_name": "HOW", "avg_discharge": 0.0, "flood_risk_score": null, "flood_risk_category": "Unknown", "forecast_steps": 0 }, "geometry": { "type": "Point", "coordinates": [ 14.149328186089976, 52.874259068468177 ] } },
{ "type": "Feature", "properties": { "station": "HOHENSAATEN WEST AP", "river_km": 93.0, "agency": "STANDORT EBERSWALDE", "station_id": "603400", "river_name": "HOW", "avg_discharge": 0.0, "flood_risk_score": null, "flood_risk_category": "Unknown", "forecast_steps": 0 }, "geometry": { "type": "Point", "coordinates": [ 14.151790666503565, 52.876693972018415 ] } },
{ "type": "Feature", "properties": { "station": "SCHWEDT SCHLEUSE BP", "river_km": 123.5, "agency": "STANDORT EBERSWALDE", "station_id": "603410", "river_name": "HOW", "avg_discharge": 0.0, "flood_risk_score": null, "flood_risk_category": "Unknown", "forecast_steps": 0 }, "geometry": { "type": "Point", "coordinates": [ 14.321854768793068, 53.068882692571307 ] } },
{ "type": "Feature", "properties": { "station": "FRIEDRICHSTHAL", "river_km": 133.7, "agency": "STANDORT EBERSWALDE", "station_id": "603420", "river_name": "HOW", "avg_discharge": 0.0, "flood_risk_score": null, "flood_risk_category": "Unknown", "forecast_steps": 0 }, "geometry": { "type": "Point", "coordinates": [ 14.357228944290402, 53.155890453671304 ] } },
{ "type": "Feature", "properties": { "station": "SCHÖNWALDE OP", "river_km": 8.676, "agency": "STANDORT BRANDENBURG", "station_id": "587050", "river_name": "HvK", "avg_discharge": 0.234375, "flood_risk_score": 0.0, "flood_risk_category": "Very Low", "forecast_steps": 3 }, "geometry": { "type": "Point", "coordinates": [ 13.088864417202412, 52.607862231089456 ] } },
{ "type": "Feature", "properties": { "station": "SCHÖNWALDE UP", "river_km": 9.002, "agency": "STANDORT BRANDENBURG", "station_id": "587060", "river_name": "HvK", "avg_discharge": 0.234375, "flood_risk_score": 0.0, "flood_risk_category": "Very Low", "forecast_steps": 3 }, "geometry": { "type": "Point", "coordinates": [ 13.084078146108569, 52.607726399831478 ] } },
{ "type": "Feature", "properties": { "station": "OLDENBURG-DRIELAKE", "river_km": 0.547, "agency": "BREMEN", "station_id": "4960030", "river_name": "HUNTE", "avg_discharge": 380.89322916666669, "flood_risk_score": 3.0, "flood_risk_category": "Medium", "forecast_steps": 3 }, "geometry": { "type": "Point", "coordinates": [ 8.234080885188323, 53.140229115278174 ] } },
{ "type": "Feature", "properties": { "station": "REITHÖRNE", "river_km": 7.6, "agency": "BREMEN", "station_id": "4960040", "river_name": "HUNTE", "avg_discharge": 380.89322916666669, "flood_risk_score": 3.0, "flood_risk_category": "Medium", "forecast_steps": 3 }, "geometry": { "type": "Point", "coordinates": [ 8.322516425323334, 53.16120726677422 ] } },
{ "type": "Feature", "properties": { "station": "HOLLERSIEL", "river_km": 11.535, "agency": "BREMEN", "station_id": "4960050", "river_name": "HUNTE", "avg_discharge": 380.89322916666669, "flood_risk_score": 3.0, "flood_risk_category": "Medium", "forecast_steps": 3 }, "geometry": { "type": "Point", "coordinates": [ 8.37849709446985, 53.168143699099048 ] } },
{ "type": "Feature", "properties": { "station": "BUTTELERHÖRNE", "river_km": 14.249, "agency": "BREMEN", "station_id": "4960060", "river_name": "HUNTE", "avg_discharge": 380.89322916666669, "flood_risk_score": 3.0, "flood_risk_category": "Medium", "forecast_steps": 3 }, "geometry": { "type": "Point", "coordinates": [ 8.412609597352631, 53.179899189077041 ] } },
{ "type": "Feature", "properties": { "station": "HUNTEBRÜCK", "river_km": 17.8, "agency": "BREMEN", "station_id": "4960070", "river_name": "HUNTE", "avg_discharge": 380.89322916666669, "flood_risk_score": 3.0, "flood_risk_category": "Medium", "forecast_steps": 3 }, "geometry": { "type": "Point", "coordinates": [ 8.44739288337991, 53.200283172957413 ] } },
{ "type": "Feature", "properties": { "station": "ELSFLETH OHRT", "river_km": 21.493, "agency": "BREMEN", "station_id": "4960080", "river_name": "HUNTE", "avg_discharge": 380.89322916666669, "flood_risk_score": 3.0, "flood_risk_category": "Medium", "forecast_steps": 3 }, "geometry": { "type": "Point", "coordinates": [ 8.459939466394742, 53.22122323332735 ] } },
{ "type": "Feature", "properties": { "station": "ILMENAU", "river_km": 12.0, "agency": "REGIONALSTELLE SUHL", "station_id": "166640", "river_name": "ILM", "avg_discharge": 0.1328125, "flood_risk_score": 0.0, "flood_risk_category": "Very Low", "forecast_steps": 3 }, "geometry": { "type": "Point", "coordinates": [ 10.928842587394035, 50.680942368697885 ] } },
{ "type": "Feature", "properties": { "station": "LÜNE", "river_km": 1.501, "agency": "STANDORT LAUENBURG", "station_id": "5940020", "river_name": "ILMENAU", "avg_discharge": 380.89322916666669, "flood_risk_score": 3.0, "flood_risk_category": "Medium", "forecast_steps": 3 }, "geometry": { "type": "Point", "coordinates": [ 10.419860423105543, 53.261043208066546 ] } },
{ "type": "Feature", "properties": { "station": "BARDOWICK OP", "river_km": 5.624, "agency": "STANDORT LAUENBURG", "station_id": "5940029", "river_name": "ILMENAU", "avg_discharge": 380.89322916666669, "flood_risk_score": 3.0, "flood_risk_category": "Medium", "forecast_steps": 3 }, "geometry": { "type": "Point", "coordinates": [ 10.401113855728596, 53.291096854826797 ] } },
{ "type": "Feature", "properties": { "station": "BARDOWICK UP", "river_km": 5.687, "agency": "STANDORT LAUENBURG", "station_id": "5940030", "river_name": "ILMENAU", "avg_discharge": 380.89322916666669, "flood_risk_score": 3.0, "flood_risk_category": "Medium", "forecast_steps": 3 }, "geometry": { "type": "Point", "coordinates": [ 10.401067204785235, 53.291656475658186 ] } },
{ "type": "Feature", "properties": { "station": "WITTORF OP", "river_km": 12.2, "agency": "STANDORT LAUENBURG", "station_id": "5940049", "river_name": "ILMENAU", "avg_discharge": 380.89322916666669, "flood_risk_score": 3.0, "flood_risk_category": "Medium", "forecast_steps": 3 }, "geometry": { "type": "Point", "coordinates": [ 10.383548108446119, 53.341593998753666 ] } },
{ "type": "Feature", "properties": { "station": "WITTORF UP", "river_km": 12.3, "agency": "STANDORT LAUENBURG", "station_id": "5940050", "river_name": "ILMENAU", "avg_discharge": 380.89322916666669, "flood_risk_score": 3.0, "flood_risk_category": "Medium", "forecast_steps": 3 }, "geometry": { "type": "Point", "coordinates": [ 10.383557985377397, 53.34212643179022 ] } },
{ "type": "Feature", "properties": { "station": "FAHRENHOLZ OP", "river_km": 17.64, "agency": "STANDORT LAUENBURG", "station_id": "5940070", "river_name": "ILMENAU", "avg_discharge": 380.89322916666669, "flood_risk_score": 3.0, "flood_risk_category": "Medium", "forecast_steps": 3 }, "geometry": { "type": "Point", "coordinates": [ 10.316377166954785, 53.360280216277772 ] } },
{ "type": "Feature", "properties": { "station": "FAHRENHOLZ UP", "river_km": 17.71, "agency": "STANDORT LAUENBURG", "station_id": "5940060", "river_name": "ILMENAU", "avg_discharge": 380.89322916666669, "flood_risk_score": 3.0, "flood_risk_category": "Medium", "forecast_steps": 3 }, "geometry": { "type": "Point", "coordinates": [ 10.315492584985282, 53.360316893863875 ] } },
{ "type": "Feature", "properties": { "station": "ILMENAU SPERRWERK AP", "river_km": 28.467, "agency": "STANDORT LAUENBURG", "station_id": "5940080", "river_name": "ILMENAU", "avg_discharge": 380.89322916666669, "flood_risk_score": 3.0, "flood_risk_category": "Medium", "forecast_steps": 3 }, "geometry": { "type": "Point", "coordinates": [ 10.178545956423728, 53.393888262415125 ] } },
{ "type": "Feature", "properties": { "station": "KOTTHAUSEN", "river_km": 3.4, "agency": "HANN-MÜNDEN", "station_id": "44100013", "river_name": "ITTER_DIEMEL", "avg_discharge": 0.1328125, "flood_risk_score": 0.0, "flood_risk_category": "Very Low", "forecast_steps": 3 }, "geometry": { "type": "Point", "coordinates": [ 8.682785657143638, 51.363558458400107 ] } },
{ "type": "Feature", "properties": { "station": "HERZHAUSEN", "river_km": 1.3, "agency": "HANN-MÜNDEN", "station_id": "42800218", "river_name": "ITTER EDER", "avg_discharge": 0.1328125, "flood_risk_score": 0.0, "flood_risk_category": "Very Low", "forecast_steps": 3 }, "geometry": { "type": "Point", "coordinates": [ 8.88881490002891, 51.193032497977107 ] } },
{ "type": "Feature", "properties": { "station": "WHV ALTER VORHAFEN", "river_km": 1.565, "agency": "WILHELMSHAVEN", "station_id": "9440020", "river_name": "JADE", "avg_discharge": 380.89322916666669, "flood_risk_score": 3.0, "flood_risk_category": "Medium", "forecast_steps": 3 }, "geometry": { "type": "Point", "coordinates": [ 8.145133955090275, 53.51449562030335 ] } },
{ "type": "Feature", "properties": { "station": "WHV NEUER VORHAFEN", "river_km": 4.053, "agency": "WILHELMSHAVEN", "station_id": "9440030", "river_name": "JADE", "avg_discharge": 380.89322916666669, "flood_risk_score": 3.0, "flood_risk_category": "Medium", "forecast_steps": 3 }, "geometry": { "type": "Point", "coordinates": [ 8.160728742147516, 53.53030609610316 ] } },
{ "type": "Feature", "properties": { "station": "JADE-WESER-PORT", "river_km": 11.6, "agency": "WILHELMSHAVEN", "station_id": "9430050", "river_name": "JADE", "avg_discharge": 380.89322916666669, "flood_risk_score": 3.0, "flood_risk_category": "Medium", "forecast_steps": 3 }, "geometry": { "type": "Point", "coordinates": [ 8.149052000490585, 53.60204393336538 ] } },
{ "type": "Feature", "properties": { "station": "HOOKSIELPLATE", "river_km": 18.098, "agency": "WILHELMSHAVEN", "station_id": "9430020", "river_name": "JADE", "avg_discharge": 380.89322916666669, "flood_risk_score": 3.0, "flood_risk_category": "Medium", "forecast_steps": 3 }, "geometry": { "type": "Point", "coordinates": [ 8.148590233830717, 53.669165119871074 ] } },
{ "type": "Feature", "properties": { "station": "SCHILLIG", "river_km": 24.137, "agency": "WILHELMSHAVEN", "station_id": "9430030", "river_name": "JADE", "avg_discharge": 380.89322916666669, "flood_risk_score": 3.0, "flood_risk_category": "Medium", "forecast_steps": 3 }, "geometry": { "type": "Point", "coordinates": [ 8.047073182615405, 53.6990043558487 ] } },
{ "type": "Feature", "properties": { "station": "MELLUMPLATE", "river_km": 31.13, "agency": "WILHELMSHAVEN", "station_id": "9420010", "river_name": "JADE", "avg_discharge": 380.89322916666669, "flood_risk_score": 3.0, "flood_risk_category": "Medium", "forecast_steps": 3 }, "geometry": { "type": "Point", "coordinates": [ 8.092507447705561, 53.771713633119049 ] } },
{ "type": "Feature", "properties": { "station": "WANGEROOGE OST", "river_km": 34.999, "agency": "WILHELMSHAVEN", "station_id": "9420020", "river_name": "JADE", "avg_discharge": 380.89322916666669, "flood_risk_score": 3.0, "flood_risk_category": "Medium", "forecast_steps": 3 }, "geometry": { "type": "Point", "coordinates": [ 7.984916047278568, 53.767077751744367 ] } },
{ "type": "Feature", "properties": { "station": "WANGEROOGE NORD", "river_km": 41.049, "agency": "WILHELMSHAVEN", "station_id": "9420030", "river_name": "JADE", "avg_discharge": 380.89322916666669, "flood_risk_score": 3.0, "flood_risk_category": "Medium", "forecast_steps": 3 }, "geometry": { "type": "Point", "coordinates": [ 7.929200210236431, 53.806298564048042 ] } },
{ "type": "Feature", "properties": { "station": "WANGEROOGE WEST ", "river_km": 43.208, "agency": "WILHELMSHAVEN", "station_id": "9420040", "river_name": "JADE", "avg_discharge": 380.89322916666669, "flood_risk_score": 3.0, "flood_risk_category": "Medium", "forecast_steps": 3 }, "geometry": { "type": "Point", "coordinates": [ 7.867938460727218, 53.776237943635337 ] } },
{ "type": "Feature", "properties": { "station": "KARNIN", "river_km": 0.0, "agency": "STANDORT STRALSUND", "station_id": "9690084", "river_name": "OSPH", "avg_discharge": 0.0, "flood_risk_score": null, "flood_risk_category": "Unknown", "forecast_steps": 0 }, "geometry": { "type": "Point", "coordinates": [ 13.858494243912038, 53.843664873087377 ] } },
{ "type": "Feature", "properties": { "station": "UECKERMÜNDE", "river_km": 0.0, "agency": "STANDORT STRALSUND", "station_id": "9690088", "river_name": "OSPH", "avg_discharge": 0.0, "flood_risk_score": null, "flood_risk_category": "Unknown", "forecast_steps": 0 }, "geometry": { "type": "Point", "coordinates": [ 14.066477558939392, 53.750310387515064 ] } },
{ "type": "Feature", "properties": { "station": "ELMSHORN HAFEN", "river_km": 0.028, "agency": "STANDORT HAMBURG", "station_id": "5970022", "river_name": "KRÜCKAU", "avg_discharge": 380.89322916666669, "flood_risk_score": 3.0, "flood_risk_category": "Medium", "forecast_steps": 3 }, "geometry": { "type": "Point", "coordinates": [ 9.653894435890026, 53.752182328291525 ] } },
{ "type": "Feature", "properties": { "station": "KRÜCKAU-SPERRWERK BP", "river_km": 10.5, "agency": "STANDORT HAMBURG", "station_id": "5970023", "river_name": "KRÜCKAU", "avg_discharge": 380.89322916666669, "flood_risk_score": 3.0, "flood_risk_category": "Medium", "forecast_steps": 3 }, "geometry": { "type": "Point", "coordinates": [ 9.526956004763068, 53.716258069155629 ] } },
{ "type": "Feature", "properties": { "station": "HUNDSMÜHLEN", "river_km": 5.188, "agency": "BREMEN", "station_id": "4960020", "river_name": "KÜSTENKANAL", "avg_discharge": 380.89322916666669, "flood_risk_score": 3.0, "flood_risk_category": "Medium", "forecast_steps": 3 }, "geometry": { "type": "Point", "coordinates": [ 8.173069994153121, 53.108846964469031 ] } },
{ "type": "Feature", "properties": { "station": "Hilkenbrook", "river_km": 41.194, "agency": "STANDORT MEPPEN", "station_id": "3800010", "river_name": "KÜSTENKANAL", "avg_discharge": 380.89322916666669, "flood_risk_score": 3.0, "flood_risk_category": "Medium", "forecast_steps": 3 }, "geometry": { "type": "Point", "coordinates": [ 7.699277189630904, 53.018947879582001 ] } },
{ "type": "Feature", "properties": { "station": "SCHLEUSE DÖRPEN UNTERWASSER", "river_km": 64.9, "agency": "STANDORT MEPPEN", "station_id": "3760054", "river_name": "KÜSTENKANAL", "avg_discharge": 380.89322916666669, "flood_risk_score": 3.0, "flood_risk_category": "Medium", "forecast_steps": 3 }, "geometry": { "type": "Point", "coordinates": [ 7.355621485753112, 52.983053603189163 ] } },
{ "type": "Feature", "properties": { "station": "Marburg", "river_km": -38.7, "agency": "MARBURG", "station_id": "25830056", "river_name": "LAHN", "avg_discharge": 0.1328125, "flood_risk_score": 0.0, "flood_risk_category": "Very Low", "forecast_steps": 3 }, "geometry": { "type": "Point", "coordinates": [ 8.76448882416514, 50.798718573511223 ] } },
{ "type": "Feature", "properties": { "station": "Giessen Klärwerk", "river_km": -3.2, "agency": "STANDORT KOBLENZ", "station_id": "25800100", "river_name": "LAHN", "avg_discharge": 0.1328125, "flood_risk_score": 0.0, "flood_risk_category": "Very Low", "forecast_steps": 3 }, "geometry": { "type": "Point", "coordinates": [ 8.64860169166119, 50.575037690807001 ] } },
{ "type": "Feature", "properties": { "station": "Niederbiel Schleuse Kanal OP", "river_km": 19.3, "agency": "STANDORT KOBLENZ", "station_id": "25800177", "river_name": "LAHN", "avg_discharge": 0.1328125, "flood_risk_score": 0.0, "flood_risk_category": "Very Low", "forecast_steps": 3 }, "geometry": { "type": "Point", "coordinates": [ 8.425670580629886, 50.547099682265326 ] } },
{ "type": "Feature", "properties": { "station": "Leun neu", "river_km": 25.1, "agency": "STANDORT KOBLENZ", "station_id": "25800200", "river_name": "LAHN", "avg_discharge": 0.1328125, "flood_risk_score": 0.0, "flood_risk_category": "Very Low", "forecast_steps": 3 }, "geometry": { "type": "Point", "coordinates": [ 8.355230130810975, 50.5451202714506 ] } },
{ "type": "Feature", "properties": { "station": "Fürfurt Schleuse UP", "river_km": 51.2, "agency": "STANDORT KOBLENZ", "station_id": "25800300", "river_name": "LAHN", "avg_discharge": 0.1328125, "flood_risk_score": 0.0, "flood_risk_category": "Very Low", "forecast_steps": 3 }, "geometry": { "type": "Point", "coordinates": [ 8.251935583395737, 50.426976214436571 ] } },
{ "type": "Feature", "properties": { "station": "Runkel Schleuse UP", "river_km": 65.3, "agency": "STANDORT KOBLENZ", "station_id": "25800400", "river_name": "LAHN", "avg_discharge": 0.1328125, "flood_risk_score": 0.0, "flood_risk_category": "Very Low", "forecast_steps": 3 }, "geometry": { "type": "Point", "coordinates": [ 8.15856975860576, 50.405275497664178 ] } },
{ "type": "Feature", "properties": { "station": "Limburg Schleuse UP", "river_km": 76.6, "agency": "STANDORT KOBLENZ", "station_id": "25800440", "river_name": "LAHN", "avg_discharge": 0.1328125, "flood_risk_score": 0.0, "flood_risk_category": "Very Low", "forecast_steps": 3 }, "geometry": { "type": "Point", "coordinates": [ 8.065188851061134, 50.391512808782835 ] } },
{ "type": "Feature", "properties": { "station": "Diez Schleuse OP", "river_km": 83.2, "agency": "STANDORT KOBLENZ", "station_id": "25800478", "river_name": "LAHN", "avg_discharge": 0.1328125, "flood_risk_score": 0.0, "flood_risk_category": "Very Low", "forecast_steps": 3 }, "geometry": { "type": "Point", "coordinates": [ 8.002427516349069, 50.376205839956469 ] } },
{ "type": "Feature", "properties": { "station": "Diez Schleuse UP", "river_km": 83.2, "agency": "STANDORT KOBLENZ", "station_id": "25800480", "river_name": "LAHN", "avg_discharge": 0.1328125, "flood_risk_score": 0.0, "flood_risk_category": "Very Low", "forecast_steps": 3 }, "geometry": { "type": "Point", "coordinates": [ 8.002590487560742, 50.375811513906875 ] } },
{ "type": "Feature", "properties": { "station": "Diez Hafen", "river_km": 83.7, "agency": "STANDORT KOBLENZ", "station_id": "25800500", "river_name": "LAHN", "avg_discharge": 0.1328125, "flood_risk_score": 0.0, "flood_risk_category": "Very Low", "forecast_steps": 3 }, "geometry": { "type": "Point", "coordinates": [ 8.00506699207213, 50.372388129130599 ] } },
{ "type": "Feature", "properties": { "station": "Cramberg Schleuse OP", "river_km": 91.8, "agency": "STANDORT KOBLENZ", "station_id": "25800538", "river_name": "LAHN", "avg_discharge": 0.1328125, "flood_risk_score": 0.0, "flood_risk_category": "Very Low", "forecast_steps": 3 }, "geometry": { "type": "Point", "coordinates": [ 7.955810844130273, 50.34265462281455 ] } },
{ "type": "Feature", "properties": { "station": "Cramberg Schleuse UP", "river_km": 91.8, "agency": "STANDORT KOBLENZ", "station_id": "25800540", "river_name": "LAHN", "avg_discharge": 0.1328125, "flood_risk_score": 0.0, "flood_risk_category": "Very Low", "forecast_steps": 3 }, "geometry": { "type": "Point", "coordinates": [ 7.955216945050264, 50.342820170295866 ] } },
{ "type": "Feature", "properties": { "station": "Scheidt Schleuse OP", "river_km": 96.8, "agency": "STANDORT KOBLENZ", "station_id": "25800558", "river_name": "LAHN", "avg_discharge": 0.1328125, "flood_risk_score": 0.0, "flood_risk_category": "Very Low", "forecast_steps": 3 }, "geometry": { "type": "Point", "coordinates": [ 7.929586981231308, 50.337613482371552 ] } },
{ "type": "Feature", "properties": { "station": "Scheidt Schleuse UP", "river_km": 96.8, "agency": "STANDORT KOBLENZ", "station_id": "25800560", "river_name": "LAHN", "avg_discharge": 0.1328125, "flood_risk_score": 0.0, "flood_risk_category": "Very Low", "forecast_steps": 3 }, "geometry": { "type": "Point", "coordinates": [ 7.929973188945541, 50.337311247270264 ] } },
{ "type": "Feature", "properties": { "station": "Kalkofen Schleuse OP", "river_km": 105.6, "agency": "STANDORT KOBLENZ", "station_id": "25800578", "river_name": "LAHN", "avg_discharge": 0.1328125, "flood_risk_score": 0.0, "flood_risk_category": "Very Low", "forecast_steps": 3 }, "geometry": { "type": "Point", "coordinates": [ 7.896350124812479, 50.314071638411889 ] } },
{ "type": "Feature", "properties": { "station": "Kalkofen neu", "river_km": 106.4, "agency": "STANDORT KOBLENZ", "station_id": "25800600", "river_name": "LAHN", "avg_discharge": 0.1328125, "flood_risk_score": 0.0, "flood_risk_category": "Very Low", "forecast_steps": 3 }, "geometry": { "type": "Point", "coordinates": [ 7.889815619272524, 50.317831817171495 ] } },
{ "type": "Feature", "properties": { "station": "Hollerich Schleuse OP", "river_km": 113.0, "agency": "STANDORT KOBLENZ", "station_id": "25800618", "river_name": "LAHN", "avg_discharge": 0.1328125, "flood_risk_score": 0.0, "flood_risk_category": "Very Low", "forecast_steps": 3 }, "geometry": { "type": "Point", "coordinates": [ 7.833036632734226, 50.304720258513775 ] } },
{ "type": "Feature", "properties": { "station": "Hollerich Schleuse UP", "river_km": 113.1, "agency": "STANDORT KOBLENZ", "station_id": "25800620", "river_name": "LAHN", "avg_discharge": 0.1328125, "flood_risk_score": 0.0, "flood_risk_category": "Very Low", "forecast_steps": 3 }, "geometry": { "type": "Point", "coordinates": [ 7.833096531229734, 50.304567963136137 ] } },
{ "type": "Feature", "properties": { "station": "Nassau Schleuse OP", "river_km": 117.6, "agency": "STANDORT KOBLENZ", "station_id": "25800638", "river_name": "LAHN", "avg_discharge": 0.1328125, "flood_risk_score": 0.0, "flood_risk_category": "Very Low", "forecast_steps": 3 }, "geometry": { "type": "Point", "coordinates": [ 7.788009216945954, 50.31710287172794 ] } },
{ "type": "Feature", "properties": { "station": "Dausenau Schleuse OP", "river_km": 122.3, "agency": "STANDORT KOBLENZ", "station_id": "25800678", "river_name": "LAHN", "avg_discharge": 0.1328125, "flood_risk_score": 0.0, "flood_risk_category": "Very Low", "forecast_steps": 3 }, "geometry": { "type": "Point", "coordinates": [ 7.743760556825511, 50.321435922704772 ] } },
{ "type": "Feature", "properties": { "station": "Dausenau Schleuse UP", "river_km": 122.4, "agency": "STANDORT KOBLENZ", "station_id": "25800680", "river_name": "LAHN", "avg_discharge": 0.1328125, "flood_risk_score": 0.0, "flood_risk_category": "Very Low", "forecast_steps": 3 }, "geometry": { "type": "Point", "coordinates": [ 7.74333278307788, 50.321143493181268 ] } },
{ "type": "Feature", "properties": { "station": "Bad Ems Wehr OP", "river_km": 125.9, "agency": "STANDORT KOBLENZ", "station_id": "25800690", "river_name": "LAHN", "avg_discharge": 0.1328125, "flood_risk_score": 0.0, "flood_risk_category": "Very Low", "forecast_steps": 3 }, "geometry": { "type": "Point", "coordinates": [ 7.710900927201317, 50.331877962605724 ] } },
{ "type": "Feature", "properties": { "station": "Bad Ems Schleuse UP", "river_km": 127.0, "agency": "STANDORT KOBLENZ", "station_id": "25800700", "river_name": "LAHN", "avg_discharge": 0.1328125, "flood_risk_score": 0.0, "flood_risk_category": "Very Low", "forecast_steps": 3 }, "geometry": { "type": "Point", "coordinates": [ 7.696354307989325, 50.335097497146393 ] } },
{ "type": "Feature", "properties": { "station": "Lahnstein Schleuse OP", "river_km": 135.9, "agency": "STANDORT KOBLENZ", "station_id": "25800798", "river_name": "LAHN", "avg_discharge": 0.1328125, "flood_risk_score": 0.0, "flood_risk_category": "Very Low", "forecast_steps": 3 }, "geometry": { "type": "Point", "coordinates": [ 7.616499730373, 50.30789412970018 ] } },
{ "type": "Feature", "properties": { "station": "Lahnstein Schleuse UP", "river_km": 136.0, "agency": "STANDORT KOBLENZ", "station_id": "25800800", "river_name": "LAHN", "avg_discharge": 0.1328125, "flood_risk_score": 0.0, "flood_risk_category": "Very Low", "forecast_steps": 3 }, "geometry": { "type": "Point", "coordinates": [ 7.612956624441371, 50.308031788117525 ] } },
{ "type": "Feature", "properties": { "station": "BERLIN-UNTERSCHLEUSE UP", "river_km": 1.61, "agency": "STANDORT BERLIN", "station_id": "586630", "river_name": "LWK", "avg_discharge": 19.135416666666668, "flood_risk_score": 0.0, "flood_risk_category": "Very Low", "forecast_steps": 3 }, "geometry": { "type": "Point", "coordinates": [ 13.335037089237414, 52.511607788985685 ] } },
{ "type": "Feature", "properties": { "station": "BERLIN-UNTERSCHLEUSE OP", "river_km": 1.71, "agency": "STANDORT BERLIN", "station_id": "586620", "river_name": "LWK", "avg_discharge": 19.135416666666668, "flood_risk_score": 0.0, "flood_risk_category": "Very Low", "forecast_steps": 3 }, "geometry": { "type": "Point", "coordinates": [ 13.336518600769519, 52.511402333844593 ] } },
{ "type": "Feature", "properties": { "station": "BERLIN-OBERSCHLEUSE UP", "river_km": 10.51, "agency": "STANDORT BERLIN", "station_id": "586610", "river_name": "LWK", "avg_discharge": 0.3671875, "flood_risk_score": 0.0, "flood_risk_category": "Very Low", "forecast_steps": 3 }, "geometry": { "type": "Point", "coordinates": [ 13.448832568216398, 52.497408317191898 ] } },
{ "type": "Feature", "properties": { "station": "BERLIN-OBERSCHLEUSE OP", "river_km": 10.62, "agency": "STANDORT BERLIN", "station_id": "586600", "river_name": "LWK", "avg_discharge": 0.3671875, "flood_risk_score": 0.0, "flood_risk_category": "Very Low", "forecast_steps": 3 }, "geometry": { "type": "Point", "coordinates": [ 13.449729991452957, 52.498278078310527 ] } },
{ "type": "Feature", "properties": { "station": "DREYSCHLOOT", "river_km": 0.73, "agency": "STANDORT EMDEN", "station_id": "3880010", "river_name": "LEDA", "avg_discharge": 380.89322916666669, "flood_risk_score": 3.0, "flood_risk_category": "Medium", "forecast_steps": 3 }, "geometry": { "type": "Point", "coordinates": [ 7.66914003439416, 53.177993628411713 ] } },
{ "type": "Feature", "properties": { "station": "LEDASPERRWERK UP", "river_km": 21.125, "agency": "STANDORT EMDEN", "station_id": "3880050", "river_name": "LEDA", "avg_discharge": 380.89322916666669, "flood_risk_score": 3.0, "flood_risk_category": "Medium", "forecast_steps": 3 }, "geometry": { "type": "Point", "coordinates": [ 7.473235725839974, 53.213549373815873 ] } },
{ "type": "Feature", "properties": { "station": "HERRENHAUSEN", "river_km": 25.12, "agency": "VERDEN", "station_id": "48800108", "river_name": "LEINE", "avg_discharge": 0.046875, "flood_risk_score": 0.0, "flood_risk_category": "Very Low", "forecast_steps": 3 }, "geometry": { "type": "Point", "coordinates": [ 9.676062044544127, 52.388067812468023 ] } },
{ "type": "Feature", "properties": { "station": "NEUSTADT", "river_km": 66.4, "agency": "VERDEN", "station_id": "48800200", "river_name": "LEINE", "avg_discharge": 0.0390625, "flood_risk_score": 0.0, "flood_risk_category": "Very Low", "forecast_steps": 3 }, "geometry": { "type": "Point", "coordinates": [ 9.466717295927149, 52.509593178941913 ] } },
{ "type": "Feature", "properties": { "station": "SCHWARMSTEDT", "river_km": 106.04, "agency": "VERDEN", "station_id": "48800301", "river_name": "LEINE", "avg_discharge": 380.89322916666669, "flood_risk_score": 3.0, "flood_risk_category": "Medium", "forecast_steps": 3 },